$GNRMC,012202.00,A,2237.07278,S,04930.19506,W,1.568,38.77,210323,,,D*42
$GPGSV,4,1,16,05,04,324,43,06,24,045,48,11,09,007,42,12,16,272,44*7E
$GLGSV,3,1,09,67,28,326,44,68,36,265,48,69,11,218,42,77,26,127,35*60
$GNGLL,2237.07278,S,04930.19506,W,012202.00,A,D*75
$GNRMC,012203.00,A,2237.07249,S,04930.19458,W,2.018,52.20,210323,,,D*44
$GPGSV,4,2,16,13,69,316,47,14,20,129,46,15,45,262,48,17,48,136,51*78
$GLGSV,3,1,09,67,28,327,42,68,36,265,53,69,11,218,43,77,26,127,35*6C
$GNGLL,2237.07249,S,04930.19458,W,012203.00,A,D*7C
$GNRMC,012204.00,A,2237.07217,S,04930.19395,W,2.544,60.68,210323,,,D*4F
$GPGSV,4,1,16,05,04,324,42,06,24,045,48,11,09,007,44,12,16,272,47*7A
$GLGSV,3,1,09,67,28,327,43,68,36,266,51,69,11,218,40,77,26,127,35*6F
$GNGLL,2237.07217,S,04930.19395,W,012204.00,A,D*76
$GNRMC,012205.00,A,2237.07191,S,04930.19336,W,2.030,62.98,210323,,,D*41
$GPGSV,4,2,16,13,69,316,50,14,20,129,46,15,45,262,50,17,48,136,51*77
$GLGSV,3,1,09,67,28,327,42,68,36,266,53,69,11,218,41,77,26,127,35*6D
$GNGLL,2237.07191,S,04930.19336,W,012205.00,A,D*73
$GNRMC,012206.00,A,2237.07170,S,04930.19279,W,2.105,65.54,210323,,,D*47
$GPGSV,4,4,16,36,00,087,,46,01,274,,48,05,276,38,49,25,075,47*7C
$GLGSV,3,1,09,67,28,327,42,68,36,266,54,69,11,218,40,77,26,127,35*6B
$GNGLL,2237.07170,S,04930.19279,W,012206.00,A,D*75
$GNRMC,012207.00,A,2237.07141,S,04930.19217,W,2.504,62.48,210323,,,D*43
$GPGSV,4,2,16,13,69,316,46,14,20,129,47,15,45,262,45,17,48,136,51*75
$GLGSV,3,1,09,67,28,327,44,68,36,266,37,69,11,218,39,77,26,127,35*66
$GNGLL,2237.07141,S,04930.19217,W,012207.00,A,D*7E
$GNRMC,012208.00,A,2237.07105,S,04930.19150,W,2.613,61.68,210323,,,D*48
$GNGLL,2237.07105,S,04930.19150,W,012208.00,A,D*71
$GNRMC,012209.00,A,2237.07066,S,04930.19080,W,2.735,60.22,210323,,,D*4B
$GPGSV,4,1,16,05,04,324,41,06,24,045,48,11,09,007,45,12,16,272,40*7F
$GLGSV,3,1,09,67,28,327,46,68,36,266,50,69,11,218,40,77,26,127,35*6B
$GNGLL,2237.07066,S,04930.19080,W,012209.00,A,D*78
$GNRMC,012210.00,A,2237.07027,S,04930.19005,W,3.037,59.71,210323,,,D*43
$GPGSV,4,2,16,13,69,316,49,14,20,129,46,15,45,262,55,17,48,136,51*7A
$GLGSV,3,1,09,67,28,327,45,68,36,266,49,69,11,218,43,77,26,127,36*60
$GNGLL,2237.07027,S,04930.19005,W,012210.00,A,D*78
$GNRMC,012211.00,A,2237.06990,S,04930.18924,W,2.969,63.42,210323,,,D*47
$GPGSV,4,1,16,05,04,324,39,06,24,045,46,11,09,007,40,12,16,272,47*7C
$GLGSV,3,1,09,67,28,327,43,68,36,266,49,69,11,218,42,77,26,127,36*67
$GNGLL,2237.06990,S,04930.18924,W,012211.00,A,D*76
$GNRMC,012212.00,A,2237.06956,S,04930.18850,W,2.708,62.47,210323,,,D*41
$GPGSV,4,1,16,05,04,324,37,06,24,045,50,11,09,007,40,12,16,272,47*75
$GLGSV,3,1,09,67,28,327,43,68,36,266,49,69,11,218,42,77,26,127,36*67
$GNGLL,2237.06956,S,04930.18850,W,012212.00,A,D*7D
$GNRMC,012213.00,A,2237.06921,S,04930.18771,W,3.005,65.46,210323,,,D*41
$GPGSV,4,4,16,36,00,087,,46,01,274,,48,05,276,42,49,25,075,47*71
$GLGSV,3,1,09,67,28,327,43,68,36,266,44,69,11,218,40,77,26,126,36*69
$GNGLL,2237.06921,S,04930.18771,W,012213.00,A,D*70
$GNRMC,012214.00,A,2237.06888,S,04930.18683,W,3.249,68.61,210323,,,D*4A
$GPGSV,4,1,16,05,04,324,40,06,24,045,50,11,09,007,48,12,16,272,31*7C
$GLGSV,3,1,09,67,28,327,44,68,36,266,51,69,11,218,42,77,26,126,36*68
$GNGLL,2237.06888,S,04930.18683,W,012214.00,A,D*79
$GNRMC,012215.00,A,2237.06842,S,04930.18606,W,3.032,57.33,210323,,,D*45
$GPGSV,4,1,16,05,04,324,39,06,24,045,50,11,09,007,40,12,16,272,32*79
$GLGSV,3,1,09,67,28,327,44,68,36,266,51,69,11,218,41,77,26,126,35*68
$GNGLL,2237.06842,S,04930.18606,W,012215.00,A,D*73
$GNGSA,A,3,77,67,78,68,88,69,81,87,79,,,,1.16,0.58,1.01*10
$GPGSV,4,1,16,05,04,324,39,06,24,045,49,11,09,007,46,12,16,272,43*71
$GLGSV,3,1,09,67,28,327,44,68,36,266,48,69,11,218,40,77,26,126,36*62
$GNGLL,2237.06804,S,04930.18526,W,012216.00,A,D*73
$GNRMC,012217.00,A,2237.06767,S,04930.18440,W,3.195,65.88,210323,,,D*42
$GPGSV,4,1,16,05,04,324,36,06,24,045,47,11,09,007,45,12,16,272,47*77
$GLGSV,3,1,09,67,28,327,44,68,36,266,39,69,11,218,40,77,26,126,35*67
$GNGLL,2237.06767,S,04930.18440,W,012217.00,A,D*79
$GNRMC,012218.00,A,2237.06728,S,04930.18359,W,2.918,62.89,210323,,,D*43
$GPGSV,4,2,16,13,69,316,46,14,20,129,46,15,45,262,50,17,48,136,51*70
$GLGSV,3,1,09,67,28,327,46,68,36,266,42,69,11,218,38,77,26,126,35*66
$GNGLL,2237.06728,S,04930.18359,W,012218.00,A,D*72
$GNRMC,012219.00,A,2237.06694,S,04930.18281,W,2.795,65.52,210323,,,D*4A
$GPGSV,4,4,16,36,00,087,,46,01,274,,48,05,276,40,49,25,075,47*73
$GLGSV,3,1,09,67,28,327,44,68,36,266,48,69,11,218,39,77,26,126,35*6F
$GNGLL,2237.06694,S,04930.18281,W,012219.00,A,D*71
$GNRMC,012220.00,A,2237.06656,S,04930.18203,W,2.888,62.27,210323,,,D*42
$GPGSV,4,1,16,05,04,324,40,06,24,045,48,11,09,007,45,12,16,272,43*7D
$GLGSV,3,1,09,67,28,327,44,68,36,266,49,69,11,218,41,77,26,126,35*61
$GNGLL,2237.06656,S,04930.18203,W,012220.00,A,D*7F
$GNRMC,012221.00,A,2237.06610,S,04930.18128,W,3.076,57.55,210323,,,D*40
$GPGSV,4,2,16,13,69,316,49,14,20,129,44,15,45,262,47,17,48,136,50*7A
$GLGSV,3,1,09,67,28,327,43,68,36,266,51,69,11,218,41,77,26,126,35*6F
$GNGLL,2237.06610,S,04930.18128,W,012221.00,A,D*76
$GNRMC,012222.00,A,2237.06558,S,04930.18048,W,3.296,56.98,210323,,,D*47
$GPGSV,4,1,16,05,04,324,43,06,24,045,49,11,09,007,46,12,16,272,43*7C
$GLGSV,3,1,09,67,28,327,42,68,36,266,45,69,11,218,38,77,26,126,36*66
$GNGLL,2237.06558,S,04930.18048,W,012222.00,A,D*7D
$GNRMC,012223.00,A,2237.06525,S,04930.17956,W,3.366,70.09,210323,,,D*47
$GPGSV,4,2,16,13,69,316,50,14,20,129,46,15,45,262,45,17,48,136,51*73
$GLGSV,3,1,09,67,28,327,43,68,36,266,50,69,11,218,41,77,26,126,35*6E
$GNGLL,2237.06525,S,04930.17956,W,012223.00,A,D*7F
$GNRMC,012224.00,A,2237.06487,S,04930.17869,W,3.081,64.19,210323,,,D*4A
$GPGSV,4,3,16,19,74,107,50,20,00,350,31,24,20,221,50,30,25,071,47*76
$GLGSV,3,1,09,67,28,327,43,68,36,266,49,69,11,218,41,77,26,126,35*66
$GNGLL,2237.06487,S,04930.17869,W,012224.00,A,D*7C
$GNRMC,012225.00,A,2237.06443,S,04930.17790,W,3.062,59.54,210323,,,D*40
$GPGSV,4,4,16,36,00,087,,46,01,274,,48,05,276,39,49,25,075,47*7D
$GLGSV,3,1,09,67,28,327,44,68,36,266,51,69,11,218,41,77,26,126,35*68
$GNGLL,2237.06443,S,04930.17790,W,012225.00,A,D*7C
$GNRMC,012226.00,A,2237.06406,S,04930.17705,W,3.238,63.20,210323,,,D*49
$GPGSV,4,1,16,05,04,324,41,06,24,045,50,11,09,007,31,12,16,272,44*71
$GLGSV,3,1,09,67,28,327,45,68,36,266,51,69,11,218,40,77,26,126,34*69
$GNGLL,2237.06406,S,04930.17705,W,012226.00,A,D*72
$GNRMC,012227.00,A,2237.06363,S,04930.17619,W,3.218,62.24,210323,,,D*47
$GPGSV,4,1,16,05,04,324,41,06,24,045,49,11,09,007,44,12,16,272,42*7D
$GLGSV,3,1,09,67,28,327,44,68,36,266,41,69,11,218,40,77,26,126,35*68
$GNGLL,2237.06363,S,04930.17619,W,012227.00,A,D*7B
$GNRMC,012228.00,A,2237.06320,S,04930.17537,W,3.051,61.27,210323,,,D*4F
$GPGSV,4,1,16,05,04,324,42,06,24,045,47,11,09,007,46,12,16,272,39*7E
$GLGSV,3,1,09,67,28,327,44,68,36,266,48,69,11,218,39,77,26,126,35*6F
$GNGLL,2237.06320,S,04930.17537,W,012228.00,A,D*7C
$GNRMC,012229.00,A,2237.06279,S,04930.17457,W,3.018,61.60,210323,,,D*4A
$GPGSV,4,4,16,36,00,087,,46,01,274,,48,05,276,38,49,25,075,47*7C
$GLGSV,3,1,09,67,28,327,44,68,36,266,47,69,11,218,40,77,26,126,35*6E
$GNGLL,2237.06279,S,04930.17457,W,012229.00,A,D*77
$GNRMC,012230.00,A,2237.06236,S,04930.17371,W,3.282,62.26,210323,,,D*4A
$GPGSV,4,4,16,36,00,087,,46,01,274,,48,05,276,38,49,25,075,47*7C
$GLGSV,3,1,09,67,28,327,41,68,36,266,48,69,11,218,40,77,26,126,35*64
$GNGLL,2237.06236,S,04930.17371,W,012230.00,A,D*77
$GNRMC,012231.00,A,2237.06194,S,04930.17290,W,3.084,60.07,210323,,,D*4B
$GPGSV,4,1,16,05,04,325,40,06,24,046,47,11,09,007,47,12,16,272,47*76
$GLGSV,3,1,09,67,28,327,44,68,36,266,48,69,11,218,40,77,26,126,35*61
$GNGLL,2237.06194,S,04930.17290,W,012231.00,A,D*73
$GNRMC,012232.00,A,2237.06153,S,04930.17213,W,2.904,59.90,210323,,,D*4C
$GPGSV,4,1,16,05,04,325,40,06,24,046,49,11,09,007,44,12,16,272,53*7E
$GLGSV,3,1,09,67,28,327,46,68,36,266,44,69,11,218,41,77,26,126,35*6E
$GNGLL,2237.06153,S,04930.17213,W,012232.00,A,D*70
$GNRMC,012233.00,A,2237.06114,S,04930.17132,W,3.188,63.24,210323,,,D*45
$GPGSV,4,2,16,13,69,316,55,14,20,129,46,15,45,262,48,17,48,136,50*7A
$GLGSV,3,1,09,67,28,327,44,68,36,266,52,69,11,218,40,77,26,126,35*6A
$GNGLL,2237.06114,S,04930.17132,W,012233.00,A,D*72
$GNRMC,012234.00,A,2237.06079,S,04930.17043,W,3.274,64.63,210323,,,D*4B
$GPGSV,4,2,16,13,69,316,52,14,20,129,46,15,45,262,55,17,48,136,51*70
$GLGSV,3,1,09,67,28,327,45,68,36,266,48,69,11,218,41,77,26,126,35*61
$GNGLL,2237.06079,S,04930.17043,W,012234.00,A,D*78
$GNRMC,012235.00,A,2237.06037,S,04930.16962,W,3.040,61.13,210323,,,D*4C
$GPGSV,4,2,16,13,69,316,46,14,20,129,46,15,45,262,54,17,48,136,52*77
$GLGSV,3,1,09,67,28,327,44,68,36,266,44,69,11,218,42,77,26,126,35*6F
$GNGLL,2237.06037,S,04930.16962,W,012235.00,A,D*78
$GNRMC,012236.00,A,2237.05997,S,04930.16879,W,3.214,62.34,210323,,,D*41
$GPGSV,4,1,16,05,04,325,40,06,24,046,47,11,10,008,46,12,16,272,44*73
$GLGSV,3,1,09,67,28,327,42,68,36,266,40,69,11,218,41,77,26,126,35*6E
$GNGLL,2237.05997,S,04930.16879,W,012236.00,A,D*70
$GNRMC,012237.00,A,2237.05960,S,04930.16792,W,3.190,65.26,210323,,,D*49
$GPGSV,4,1,16,05,04,325,40,06,24,046,50,11,10,008,50,12,16,272,42*74
$GLGSV,3,1,09,67,28,327,45,68,36,266,48,69,11,218,41,77,26,126,34*60
$GNGLL,2237.05960,S,04930.16792,W,012237.00,A,D*73
$GNRMC,012238.00,A,2237.05917,S,04930.16715,W,2.954,60.29,210323,,,D*42
$GPGSV,4,1,16,05,04,325,40,06,24,046,49,11,10,008,43,12,16,272,41*7D
$GLGSV,3,1,09,67,28,327,44,68,36,266,33,69,11,218,41,77,26,126,34*6D
$GNGLL,2237.05917,S,04930.16715,W,012238.00,A,D*73
$GNRMC,012239.00,A,2237.05877,S,04930.16632,W,3.198,64.64,210323,,,D*44
$GPGSV,4,2,16,13,68,317,49,14,20,129,46,15,45,262,56,17,48,136,51*79
$GLGSV,3,1,09,67,28,327,44,68,36,266,46,69,11,218,41,77,26,126,35*6E
$GNGLL,2237.05877,S,04930.16632,W,012239.00,A,D*71
$GNRMC,012240.00,A,2237.05839,S,04930.16545,W,3.214,64.35,210323,,,D*40
$GPGSV,4,4,16,36,00,087,,46,01,274,,48,05,276,36,49,25,075,46*73
$GLGSV,3,1,09,67,28,327,45,68,36,266,49,69,11,218,41,77,26,126,35*60
$GNGLL,2237.05839,S,04930.16545,W,012240.00,A,D*76
$GNRMC,012241.00,A,2237.05799,S,04930.16464,W,3.101,60.79,210323,,,D*4D
$GPGSV,4,1,16,05,04,325,39,06,24,046,48,11,10,008,37,12,16,272,44*74
$GLGSV,3,1,09,67,28,327,44,68,36,266,39,69,11,218,41,77,26,126,35*66
$GNGLL,2237.05799,S,04930.16464,W,012241.00,A,D*70
$GNRMC,012242.00,A,2237.05762,S,04930.16383,W,3.081,62.91,210323,,,D*49
$GPGSV,4,2,16,13,68,317,49,14,20,129,47,15,45,262,48,17,48,137,52*75
$GLGSV,3,1,09,67,28,327,43,68,36,266,47,69,11,218,43,77,26,126,35*6A
$GNGLL,2237.05762,S,04930.16383,W,012242.00,A,D*79
$GNRMC,012243.00,A,2237.05724,S,04930.16298,W,3.301,63.18,210323,,,D*4A
$GPGSV,4,2,16,13,68,317,47,14,20,129,46,15,45,262,51,17,48,137,51*71
$GLGSV,3,1,09,67,28,327,43,68,36,266,53,69,11,218,43,77,26,126,35*6F
$GNGLL,2237.05724,S,04930.16298,W,012243.00,A,D*71
$GNRMC,012244.00,A,2237.05678,S,04930.16219,W,3.152,57.53,210323,,,D*40
$GPGSV,4,1,16,05,04,325,40,06,24,046,46,11,10,008,38,12,16,272,41*7E
$GLGSV,3,1,09,67,28,327,44,68,36,266,31,69,11,218,42,77,26,126,35*6D
$GNGLL,2237.05678,S,04930.16219,W,012244.00,A,D*77
$GNRMC,012245.00,A,2237.05632,S,04930.16140,W,3.115,57.39,210323,,,D*4F
$GPGSV,4,1,16,05,04,325,40,06,24,046,47,11,10,008,36,12,16,272,43*73
$GLGSV,3,1,09,67,28,327,44,68,36,266,54,69,11,218,40,77,26,126,34*6D
$GNGLL,2237.05632,S,04930.16140,W,012245.00,A,D*77
$GNRMC,012246.00,A,2237.05588,S,04930.16059,W,3.097,60.32,210323,,,D*43
$GPGSV,4,1,16,05,04,325,42,06,24,046,51,11,10,008,52,12,16,272,42*75
$GLGSV,3,1,09,67,28,327,47,68,36,266,40,69,11,218,40,77,26,126,35*6A
$GNGLL,2237.05588,S,04930.16059,W,012246.00,A,D*7F
$GNRMC,012247.00,A,2237.05547,S,04930.15976,W,3.146,62.77,210323,,,D*48
$GPGSV,4,1,16,05,04,325,40,06,24,046,50,11,10,008,46,12,16,272,36*70
$GLGSV,3,1,09,67,28,327,47,68,36,266,49,69,11,218,41,77,26,126,35*62
$GNGLL,2237.05547,S,04930.15976,W,012247.00,A,D*7A
$GNRMC,012248.00,A,2237.05508,S,04930.15893,W,3.164,63.67,210323,,,D*46
$GPGSV,4,1,16,05,04,325,42,06,24,046,46,11,10,008,46,12,16,272,51*74
$GLGSV,3,1,09,67,28,327,43,68,36,266,33,69,11,218,41,77,26,126,35*6B
$GNGLL,2237.05508,S,04930.15893,W,012248.00,A,D*74
$GNRMC,012249.00,A,2237.05464,S,04930.15811,W,3.207,60.28,210323,,,D*48
$GPGSV,4,1,16,05,04,325,39,06,24,046,47,11,10,008,46,12,16,272,47*7E
$GLGSV,3,1,09,67,28,327,43,68,36,266,28,69,11,218,43,77,26,126,35*63
$GNGLL,2237.05464,S,04930.15811,W,012249.00,A,D*74
$GNRMC,012250.00,A,2237.05426,S,04930.15727,W,3.067,63.55,210323,,,D*41
$GPGSV,4,1,16,05,04,325,40,06,24,046,48,11,10,008,40,12,16,272,52*7D
$GLGSV,3,1,09,67,28,327,42,68,36,266,46,69,11,218,42,77,26,126,35*6B
$GNGLL,2237.05426,S,04930.15727,W,012250.00,A,D*70
$GNRMC,012251.00,A,2237.05388,S,04930.15644,W,3.104,62.55,210323,,,D*42
$GPGSV,4,2,16,13,68,317,49,14,20,129,47,15,45,262,43,17,48,137,51*7D
$GLGSV,3,1,09,67,28,327,43,68,36,266,47,69,11,218,40,77,26,126,35*69
$GNGLL,2237.05388,S,04930.15644,W,012251.00,A,D*76
$GNRMC,012252.00,A,2237.05347,S,04930.15559,W,3.162,63.46,210323,,,D*4E
$GPGSV,4,2,16,13,68,317,49,14,20,129,47,15,45,262,49,17,48,137,51*77
$GLGSV,3,1,09,67,28,327,46,68,36,266,48,69,11,218,39,77,26,126,35*6D
$GNGLL,2237.05347,S,04930.15559,W,012252.00,A,D*79
$GNRMC,012253.00,A,2237.05312,S,04930.15474,W,3.058,65.50,210323,,,D*48
$GPGSV,4,1,16,05,04,325,39,06,24,046,47,11,10,008,43,12,16,272,42*7E
$GLGSV,3,1,09,67,28,327,45,68,36,266,47,69,11,218,39,77,26,126,35*61
$GNGLL,2237.05312,S,04930.15474,W,012253.00,A,D*76
$GNRMC,012254.00,A,2237.05273,S,04930.15389,W,3.173,61.57,210323,,,D*47
$GPGSV,4,1,16,05,04,325,41,06,24,046,50,11,10,008,39,12,16,272,42*7A
$GLGSV,3,1,09,67,28,327,43,68,36,266,48,69,11,218,39,77,26,126,35*68
$GNGLL,2237.05273,S,04930.15389,W,012254.00,A,D*72
$GNRMC,012255.00,A,2237.05230,S,04930.15306,W,3.140,60.63,210323,,,D*40
$GPGSV,4,1,16,05,04,325,41,06,24,046,51,11,10,008,36,12,16,272,47*71
$GLGSV,3,1,09,67,28,327,45,68,36,266,48,69,11,218,40,77,26,126,35*60
$GNGLL,2237.05230,S,04930.15306,W,012255.00,A,D*73
$GNRMC,012256.00,A,2237.05185,S,04930.15225,W,3.207,58.35,210323,,,D*46
$GPGSV,4,1,16,05,04,325,43,06,24,046,47,11,10,008,39,12,16,272,41*7D
$GLGSV,3,1,09,67,28,327,43,68,36,266,45,69,11,218,41,77,26,126,35*6A
$GNGLL,2237.05185,S,04930.15225,W,012256.00,A,D*7D
$GNRMC,012257.00,A,2237.05136,S,04930.15147,W,3.106,56.01,210323,,,D*43
$GPGSV,4,1,16,05,04,325,39,06,24,046,47,11,10,008,48,12,16,272,39*79
$GLGSV,3,1,09,67,28,327,43,68,36,266,47,69,11,218,43,77,26,126,35*6A
$GNGLL,2237.05136,S,04930.15147,W,012257.00,A,D*73
$GNRMC,012258.00,A,2237.05093,S,04930.15066,W,3.155,60.53,210323,,,D*44
$GPGSV,4,1,16,05,04,325,38,06,24,046,45,11,10,008,44,12,16,272,41*79
$GLGSV,3,1,09,67,28,327,43,68,36,266,36,69,11,218,41,77,26,126,35*6E
$GNGLL,2237.05093,S,04930.15066,W,012258.00,A,D*70
$GNRMC,012259.00,A,2237.05058,S,04930.14978,W,3.202,65.35,210323,,,D*41
$GPGSV,4,1,16,05,04,325,40,06,24,046,48,11,10,008,50,12,16,272,44*7B
$GLGSV,3,1,09,67,28,327,45,68,36,266,43,69,11,218,42,77,26,126,35*69
$GNGLL,2237.05058,S,04930.14978,W,012259.00,A,D*71
$GNRMC,012300.00,A,2237.05017,S,04930.14893,W,3.216,61.58,210323,,,D*49
$GPGSV,4,1,16,05,04,325,39,06,24,046,48,11,10,008,47,12,16,272,41*76
$GLGSV,3,1,09,67,28,327,45,68,36,266,50,69,11,218,40,77,26,126,35*69
$GNGLL,2237.05017,S,04930.14893,W,012300.00,A,D*73
$GNRMC,012301.00,A,2237.04979,S,04930.14806,W,3.160,64.96,210323,,,D*41
$GPGSV,4,1,16,05,04,325,39,06,24,046,46,11,10,008,43,12,16,272,42*7F
$GLGSV,3,1,09,67,28,327,45,68,36,266,50,69,11,218,40,77,26,126,35*69
$GNGLL,2237.04979,S,04930.14806,W,012301.00,A,D*7E
$GNRMC,012302.00,A,2237.04947,S,04930.14719,W,3.175,66.40,210323,,,D*43
$GPGSV,4,2,16,13,68,317,44,14,20,129,46,15,45,262,52,17,48,137,51*71
$GLGSV,3,1,09,67,28,327,45,68,36,266,50,69,11,218,39,77,26,126,36*64
$GNGLL,2237.04947,S,04930.14719,W,012302.00,A,D*71
$GNRMC,012303.00,A,2237.04907,S,04930.14634,W,3.191,63.72,210323,,,D*46
$GPGSV,4,2,16,13,68,317,51,14,20,129,46,15,45,262,54,17,48,137,51*73
$GLGSV,3,1,09,67,28,327,44,68,36,266,49,69,11,218,39,77,26,126,36*6D
$GNGLL,2237.04907,S,04930.14634,W,012303.00,A,D*7A
$GNRMC,012304.00,A,2237.04872,S,04930.14549,W,3.107,66.83,210323,,,D*4F
$GPGSV,4,2,16,13,68,317,52,14,20,129,46,15,45,262,49,17,48,137,52*7F
$GLGSV,3,1,09,67,28,327,43,68,36,266,46,69,11,218,39,77,26,126,36*65
$GNGLL,2237.04872,S,04930.14549,W,012304.00,A,D*77
$GNRMC,012305.00,A,2237.04837,S,04930.14464,W,3.162,66.54,210323,,,D*48
$GPGSV,4,2,16,13,68,317,47,14,20,129,46,15,45,262,33,17,48,137,52*76
$GLGSV,3,1,09,67,28,327,43,68,36,266,55,69,11,218,40,77,26,126,36*69
$GNGLL,2237.04837,S,04930.14464,W,012305.00,A,D*79
$GNRMC,012306.00,A,2237.04798,S,04930.14382,W,3.038,62.96,210323,,,D*4A
$GPGSV,4,2,16,13,68,317,43,14,20,129,46,15,45,262,,17,48,137,51*71
$GLGSV,3,1,09,67,28,327,45,68,36,266,49,69,11,218,40,77,26,126,36*62
$GNGLL,2237.04798,S,04930.14382,W,012306.00,A,D*7F
$GNRMC,012307.00,A,2237.04758,S,04930.14298,W,3.162,64.07,210323,,,D*4D
$GPGSV,4,1,16,05,04,325,39,06,24,046,47,11,10,008,43,12,16,272,50*7D
$GLGSV,3,1,09,67,28,327,43,68,36,266,53,69,11,218,40,77,26,126,35*6C
$GNGLL,2237.04758,S,04930.14298,W,012307.00,A,D*78
$GNRMC,012308.00,A,2237.04719,S,04930.14214,W,3.123,63.45,210323,,,D*47
$GPGSV,4,2,16,13,68,317,52,14,20,129,46,15,45,262,35,17,48,137,51*77
$GLGSV,3,1,09,67,28,327,45,68,36,266,44,69,11,218,39,77,26,126,35*62
$GNGLL,2237.04719,S,04930.14214,W,012308.00,A,D*76
$GNRMC,012309.00,A,2237.04680,S,04930.14131,W,3.171,62.51,210323,,,D*40
$GPGSV,4,1,16,05,04,325,40,06,24,046,50,11,10,008,48,12,16,272,43*7C
$GLGSV,3,1,09,67,28,327,46,68,36,266,48,69,11,218,41,77,26,126,35*62
$GNGLL,2237.04680,S,04930.14131,W,012309.00,A,D*72
$GNRMC,012310.00,A,2237.04638,S,04930.14047,W,3.236,62.51,210323,,,D*4B
$GPGSV,4,1,16,05,04,325,40,06,24,046,48,11,10,008,43,12,16,272,33*79
$GLGSV,3,1,09,67,28,327,45,68,36,266,42,69,11,218,41,77,26,126,35*6B
$GNGLL,2237.04638,S,04930.14047,W,012310.00,A,D*79
$GNRMC,012311.00,A,2237.04595,S,04930.13964,W,3.163,61.94,210323,,,D*48
$GPGSV,4,2,16,13,68,317,48,14,20,129,47,15,45,262,54,17,48,137,51*7A
$GLGSV,3,1,09,67,28,327,46,68,36,266,40,69,11,218,43,77,26,126,35*68
$GNGLL,2237.04595,S,04930.13964,W,012311.00,A,D*73
$GNGSA,A,3,77,67,78,68,88,69,81,87,79,,,,1.15,0.56,1.00*1C
$GPGSV,4,1,16,05,04,325,41,06,24,046,47,11,10,008,43,12,16,272,36*72
$GLGSV,3,1,09,67,28,327,46,68,36,266,42,69,11,218,41,77,26,126,35*68
$GNGLL,2237.04549,S,04930.13882,W,012312.00,A,D*78
$GNRMC,012313.00,A,2237.04504,S,04930.13805,W,3.082,59.03,210323,,,D*4F
$GPGSV,4,2,16,13,68,317,53,14,20,129,46,15,45,262,44,17,48,137,51*70
$GLGSV,3,1,09,67,28,327,43,68,36,266,40,69,11,218,41,77,26,126,35*6F
$GNGLL,2237.04504,S,04930.13805,W,012313.00,A,D*7F
$GNRMC,012314.00,A,2237.04461,S,04930.13723,W,3.164,60.61,210323,,,D*46
$GPGSV,4,2,16,13,68,317,47,14,20,129,46,15,45,262,49,17,48,137,52*7B
$GLGSV,3,1,09,67,28,327,42,68,36,266,46,69,11,218,43,77,26,126,35*6A
$GNGLL,2237.04461,S,04930.13723,W,012314.00,A,D*71
$GNRMC,012315.00,A,2237.04416,S,04930.13642,W,3.201,58.48,210323,,,D*41
$GPGSV,4,1,16,05,04,325,42,06,24,046,48,11,10,008,44,12,16,272,42*7A
$GLGSV,3,1,09,67,27,327,43,68,36,266,49,69,11,218,42,77,26,126,35*6A
$GNGLL,2237.04416,S,04930.13642,W,012315.00,A,D*76
$GNRMC,012316.00,A,2237.04375,S,04930.13556,W,3.203,63.45,210323,,,D*41
$GPGSV,4,2,16,13,68,317,50,14,20,129,46,15,45,262,44,17,48,137,51*73
$GLGSV,3,1,09,67,27,327,43,68,36,267,49,69,11,218,42,77,26,126,36*68
$GNGLL,2237.04375,S,04930.13556,W,012316.00,A,D*71
$GNRMC,012317.00,A,2237.04337,S,04930.13467,W,3.302,64.64,210323,,,D*41
$GPGSV,4,1,16,05,04,325,41,06,24,046,47,11,10,008,46,12,16,272,45*73
$GLGSV,3,1,09,67,27,327,45,68,36,267,47,69,12,219,41,77,26,126,36*61
$GNGLL,2237.04337,S,04930.13467,W,012317.00,A,D*75
$GNRMC,012318.00,A,2237.04293,S,04930.13383,W,3.148,60.20,210323,,,D*44
$GPGSV,4,2,16,13,68,317,47,14,20,129,46,15,45,262,40,17,48,137,51*71
$GLGSV,3,1,09,67,27,327,44,68,36,267,48,69,12,219,41,77,26,126,35*6C
$GNGLL,2237.04293,S,04930.13383,W,012318.00,A,D*78
$GNRMC,012319.00,A,2237.04249,S,04930.13303,W,3.118,60.30,210323,,,D*4E
$GPGSV,4,1,16,05,04,325,39,06,24,046,50,11,10,008,43,12,16,272,53*78
$GLGSV,3,1,09,67,27,327,42,68,36,267,51,69,12,219,41,77,26,126,35*62
$GNGLL,2237.04249,S,04930.13303,W,012319.00,A,D*76
$GNRMC,012320.00,A,2237.04204,S,04930.13220,W,3.199,60.32,210323,,,D*46
$GPGSV,4,1,16,05,04,325,42,06,24,046,50,11,10,008,44,12,16,272,44*75
$GLGSV,3,1,09,67,27,327,43,68,36,267,50,69,12,219,41,77,26,126,35*62
$GNGLL,2237.04204,S,04930.13220,W,012320.00,A,D*75
$GNRMC,012321.00,A,2237.04161,S,04930.13137,W,3.186,60.36,210323,,,D*48
$GPGSV,4,2,16,13,68,317,51,14,20,129,46,15,45,262,47,17,48,137,51*71
$GLGSV,3,1,09,67,27,327,43,68,36,267,48,69,12,219,41,77,26,126,35*6B
$GNGLL,2237.04161,S,04930.13137,W,012321.00,A,D*71
$GPGSV,4,1,16,05,04,325,42,06,24,046,48,11,10,008,41,12,16,272,45*78
$GLGSV,3,1,09,67,27,327,44,68,36,267,44,69,12,219,41,77,26,126,35*60
$GNGLL,2237.04124,S,04930.13053,W,012322.00,A,D*70
$GNRMC,012323.00,A,2237.04085,S,04930.12971,W,3.035,62.98,210323,,,D*45
$GPGSV,4,2,16,13,68,317,48,14,20,129,46,15,45,262,48,17,48,137,51*76
$GLGSV,3,1,09,67,27,327,46,68,36,267,39,69,12,219,39,77,26,126,35*67
$GNGLL,2237.04085,S,04930.12971,W,012323.00,A,D*73
$GNGSA,A,3,77,67,78,68,88,69,81,87,79,,,,1.17,0.58,1.01*11
$GPGSV,4,1,16,05,04,325,43,06,24,046,50,11,10,008,46,12,16,272,46*74
$GLGSV,3,1,09,67,27,327,47,68,36,267,46,69,12,219,38,77,26,126,36*6C
$GNGLL,2237.04049,S,04930.12885,W,012324.00,A,D*7E
$GNRMC,012325.00,A,2237.04012,S,04930.12798,W,3.167,65.90,210323,,,D*4D
$GPGSV,4,1,16,05,04,325,42,06,24,046,50,11,10,008,41,12,16,272,46*72
$GLGSV,3,1,09,67,27,327,43,68,36,267,45,69,12,219,39,77,26,125,35*6A
$GNGLL,2237.04012,S,04930.12798,W,012325.00,A,D*72
$GNRMC,012326.00,A,2237.03973,S,04930.12712,W,3.094,64.02,210323,,,D*42
$GPGSV,4,1,16,05,04,325,40,06,24,046,48,11,10,008,35,12,16,272,43*7F
$GLGSV,3,1,09,67,27,327,42,68,36,267,47,69,12,219,39,77,26,125,35*69
$GNGLL,2237.03973,S,04930.12712,W,012326.00,A,D*7A
$GNRMC,012327.00,A,2237.03927,S,04930.12630,W,3.157,60.02,210323,,,D*49
$GPGSV,4,1,16,05,04,325,41,06,24,046,48,11,10,008,41,12,16,272,44*7A
$GLGSV,3,1,09,67,27,327,40,68,36,267,49,69,12,219,41,77,26,125,35*6A
$GNGLL,2237.03927,S,04930.12630,W,012327.00,A,D*7B
$GNRMC,012328.00,A,2237.03881,S,04930.12546,W,3.195,60.81,210323,,,D*4C
$GPGSV,4,1,16,05,04,325,40,06,24,046,50,11,10,008,44,12,16,272,43*70
$GLGSV,3,1,09,67,27,327,42,68,36,267,49,69,12,219,40,77,26,125,35*69
$GNGLL,2237.03881,S,04930.12546,W,012328.00,A,D*7B
$GNRMC,012329.00,A,2237.03836,S,04930.12463,W,3.227,60.20,210323,,,D*46
$GPGSV,4,4,16,36,00,087,,46,01,274,,48,05,276,37,49,25,075,47*73
$GLGSV,3,1,09,67,27,327,44,68,36,267,50,69,12,219,42,77,26,125,35*65
$GNGLL,2237.03836,S,04930.12463,W,012329.00,A,D*70
$GNRMC,012330.00,A,2237.03790,S,04930.12382,W,3.200,59.87,210323,,,D*47
$GPGSV,4,1,16,05,04,325,39,06,24,046,49,11,10,008,43,12,16,272,34*71
$GLGSV,3,1,09,67,27,327,42,68,36,267,45,69,12,219,40,77,26,125,35*65
$GNGLL,2237.03790,S,04930.12382,W,012330.00,A,D*73
$GNRMC,012331.00,A,2237.03752,S,04930.12301,W,3.104,61.31,210323,,,D*42
$GPGSV,4,2,16,13,68,317,50,14,20,129,46,15,45,262,55,17,48,137,51*73
$GLGSV,3,1,09,67,27,327,46,68,36,267,55,69,12,219,42,77,26,125,35*62
$GNGLL,2237.03752,S,04930.12301,W,012331.00,A,D*77
$GNRMC,012332.00,A,2237.03708,S,04930.12219,W,3.188,59.96,210323,,,D*44
$GPGSV,4,2,16,13,68,317,50,14,20,129,46,15,45,262,49,17,48,137,51*7E
$GLGSV,3,1,09,67,27,327,48,68,36,267,52,69,12,219,42,77,26,125,35*6B
$GNGLL,2237.03708,S,04930.12219,W,012332.00,A,D*73
$GNRMC,012333.00,A,2237.03665,S,04930.12133,W,3.272,63.44,210323,,,D*44
$GPGSV,4,1,16,05,04,325,42,06,24,046,42,11,10,008,47,12,16,272,48*79
$GLGSV,3,1,09,67,27,327,48,68,36,267,32,69,12,219,42,77,26,125,35*6D
$GNGLL,2237.03665,S,04930.12133,W,012333.00,A,D*73
$GNRMC,012334.00,A,2237.03626,S,04930.12050,W,3.074,63.64,210323,,,D*46
$GPGSV,4,1,16,05,04,325,41,06,24,046,44,11,10,008,51,12,16,272,46*75
$GLGSV,3,1,09,67,27,327,44,68,36,267,38,69,12,219,40,77,26,125,35*69
$GNGLL,2237.03626,S,04930.12050,W,012334.00,A,D*77
$GNRMC,012335.00,A,2237.03589,S,04930.11967,W,3.123,65.25,210323,,,D*4F
$GPGSV,4,1,16,05,04,325,41,06,24,046,51,11,10,008,46,12,16,272,43*72
$GLGSV,3,1,09,67,27,327,42,68,36,267,54,69,12,219,40,77,26,125,35*65
$GNGLL,2237.03589,S,04930.11967,W,012335.00,A,D*7E
$GNRMC,012336.00,A,2237.03555,S,04930.11883,W,3.129,66.32,210323,,,D*49
$GNGLL,2237.03555,S,04930.11883,W,012336.00,A,D*77
$GNRMC,012337.00,A,2237.03519,S,04930.11798,W,3.185,64.95,210323,,,D*4C
$GPGSV,4,2,16,13,68,317,49,14,20,129,46,15,45,262,51,17,48,137,51*7F
$GLGSV,3,1,09,67,27,327,43,68,36,267,46,69,12,219,40,77,26,125,35*67
$GNGLL,2237.03519,S,04930.11798,W,012337.00,A,D*7B
$GNRMC,012338.00,A,2237.03476,S,04930.11714,W,3.219,62.65,210323,,,D*40
$GPGSV,4,2,16,13,68,317,49,14,20,129,46,15,45,262,52,17,48,137,51*7C
$GLGSV,3,1,09,67,27,327,45,68,36,267,48,69,12,219,40,77,26,125,35*6F
$GNGLL,2237.03476,S,04930.11714,W,012338.00,A,D*78
$GNVTG,62.44,T,,M,3.199,N,5.925,K,D*1B
$GPGSV,4,2,16,13,68,317,48,14,20,129,46,15,45,262,49,17,48,137,51*77
$GLGSV,3,1,09,67,27,327,46,68,36,267,43,69,12,219,42,77,26,125,35*65
$GNGLL,2237.03432,S,04930.11630,W,012339.00,A,D*7E
$GNRMC,012340.00,A,2237.03390,S,04930.11549,W,3.101,61.44,210323,,,D*40
$GLGSV,3,1,09,67,27,327,44,68,36,267,51,69,12,219,40,77,26,125,35*66
$GNGLL,2237.03390,S,04930.11549,W,012340.00,A,D*72
$GNRMC,012341.00,A,2237.03350,S,04930.11469,W,3.094,62.17,210323,,,D*46
$GPGSV,4,2,16,13,68,317,49,14,20,129,46,15,45,262,50,17,48,137,51*7E
$GLGSV,3,1,09,67,27,327,42,68,36,267,44,69,12,219,40,77,26,125,35*64
$GNGLL,2237.03350,S,04930.11469,W,012341.00,A,D*7C
$GNRMC,012342.00,A,2237.03309,S,04930.11386,W,3.211,63.15,210323,,,D*43
$GPGSV,4,1,16,05,04,325,40,06,25,046,51,11,10,008,45,12,16,272,38*7D
$GLGSV,3,1,09,67,27,327,44,68,36,267,42,69,12,219,38,77,26,125,35*6B
$GNGLL,2237.03309,S,04930.11386,W,012342.00,A,D*75
$GNRMC,012343.00,A,2237.03271,S,04930.11302,W,3.180,64.46,210323,,,D*4A
$GPGSV,4,1,16,05,04,325,41,06,25,046,47,11,10,008,49,12,16,272,48*70
$GLGSV,3,1,09,67,27,327,42,68,36,267,45,69,12,219,40,77,26,125,36*66
$GNGLL,2237.03271,S,04930.11302,W,012343.00,A,D*76
$GNVTG,63.56,T,,M,3.152,N,5.838,K,D*13
$GPGSV,4,2,16,13,68,317,50,14,20,129,46,15,45,262,57,17,48,137,50*70
$GLGSV,3,1,09,67,27,327,43,68,36,267,41,69,12,219,40,77,26,125,35*60
$GNGLL,2237.03229,S,04930.11218,W,012344.00,A,D*76
$GNRMC,012345.00,A,2237.03191,S,04930.11132,W,3.228,65.51,210323,,,D*46
$GPGSV,4,1,16,05,04,325,40,06,25,046,47,11,10,008,44,12,16,272,50*75
$GLGSV,3,1,09,67,27,327,44,68,36,267,38,69,12,219,40,77,26,125,35*69
$GNGLL,2237.03191,S,04930.11132,W,012345.00,A,D*7C
$GNRMC,012346.00,A,2237.03154,S,04930.11046,W,3.164,65.38,210323,,,D*4A
$GPGSV,4,1,16,05,04,325,38,06,25,046,46,11,10,008,48,12,16,272,47*71
$GLGSV,3,1,09,67,27,327,44,68,36,267,45,69,12,219,42,77,26,125,35*61
$GNGLL,2237.03154,S,04930.11046,W,012346.00,A,D*74
$GNRMC,012347.00,A,2237.03117,S,04930.10963,W,3.076,64.68,210323,,,D*45
$GPGSV,4,1,16,05,04,325,43,06,25,046,47,11,10,008,44,12,16,272,41*76
$GLGSV,3,1,09,67,27,327,44,68,36,267,45,69,12,219,41,77,26,125,35*62
$GNGLL,2237.03117,S,04930.10963,W,012347.00,A,D*7D
$GNRMC,012348.00,A,2237.03077,S,04930.10885,W,3.073,60.95,210323,,,D*47
$GPGSV,4,2,16,13,68,317,48,14,20,129,46,15,45,262,45,17,48,137,51*7B
$GLGSV,3,1,09,67,27,327,44,68,36,267,47,69,12,219,40,77,26,125,35*61
$GNGLL,2237.03077,S,04930.10885,W,012348.00,A,D*7C
$GNRMC,012349.00,A,2237.03033,S,04930.10807,W,3.203,59.00,210323,,,D*4F
$GPGSV,4,2,16,13,68,318,49,14,20,129,46,15,45,262,51,17,48,137,51*70
$GLGSV,3,1,09,67,27,327,45,68,36,267,44,69,12,219,40,77,26,125,35*63
$GNGLL,2237.03033,S,04930.10807,W,012349.00,A,D*77
$GNRMC,012350.00,A,2237.02984,S,04930.10727,W,3.131,57.37,210323,,,D*46
$GLGSV,3,1,09,67,27,327,45,68,36,267,46,69,12,219,40,77,26,125,35*61
$GNGLL,2237.02984,S,04930.10727,W,012350.00,A,D*76
$GNRMC,012351.00,A,2237.02936,S,04930.10649,W,3.101,56.61,210323,,,D*46
$GPGSV,4,1,16,05,04,325,42,06,25,046,49,11,10,008,46,12,17,271,45*7D
$GLGSV,3,1,09,67,27,327,46,68,36,267,49,69,12,219,42,77,26,125,35*6F
$GNGLL,2237.02936,S,04930.10649,W,012351.00,A,D*77
$GNRMC,012352.00,A,2237.02890,S,04930.10571,W,3.053,58.51,210323,,,D*4B
$GPGSV,4,1,16,05,04,325,44,06,25,046,44,11,10,008,48,12,17,271,45*78
$GLGSV,3,1,09,67,27,327,43,68,36,267,56,69,12,219,43,77,26,125,35*65
$GNGLL,2237.02890,S,04930.10571,W,012352.00,A,D*71
$GNRMC,012353.00,A,2237.02847,S,04930.10490,W,3.128,60.79,210323,,,D*42
$GPGSV,4,1,16,05,04,325,42,06,25,046,43,11,10,008,46,12,17,271,52*71
$GLGSV,3,1,09,67,27,327,43,68,36,267,47,69,12,219,43,77,26,125,35*65
$GNGLL,2237.02847,S,04930.10490,W,012353.00,A,D*74
$GNRMC,012354.00,A,2237.02809,S,04930.10406,W,3.110,63.41,210323,,,D*43
$GPGSV,4,1,16,05,04,325,43,06,25,046,44,11,10,008,43,12,17,271,51*71
$GLGSV,3,1,09,67,27,327,43,68,36,267,53,69,12,219,41,77,26,125,34*63
$GNGLL,2237.02809,S,04930.10406,W,012354.00,A,D*76
$GNRMC,012355.00,A,2237.02771,S,04930.10323,W,3.153,63.19,210323,,,D*48
$GPGSV,4,1,16,05,04,325,41,06,25,046,47,11,10,008,47,12,17,271,44*70
$GLGSV,3,1,09,67,27,327,43,68,36,267,41,69,12,219,40,77,26,125,34*61
$GNGLL,2237.02771,S,04930.10323,W,012355.00,A,D*77
$GNRMC,012356.00,A,2237.02727,S,04930.10239,W,3.198,62.03,210323,,,D*4F
$GPGSV,4,1,16,05,04,325,43,06,25,046,50,11,10,008,48,12,17,271,44*7B
$GLGSV,3,1,09,67,27,327,44,68,36,267,52,69,12,219,40,77,26,125,35*65
$GNGLL,2237.02727,S,04930.10239,W,012356.00,A,D*7D
$GNRMC,012357.00,A,2237.02680,S,04930.10159,W,3.235,58.84,210323,,,D*45
$GPGSV,4,1,16,05,04,325,43,06,25,046,51,11,10,008,43,12,17,271,41*74
$GLGSV,3,1,09,67,27,327,44,68,36,267,37,69,12,219,40,77,26,125,35*66
$GNGLL,2237.02680,S,04930.10159,W,012357.00,A,D*75
$GNRMC,012358.00,A,2237.02643,S,04930.10074,W,3.271,64.87,210323,,,D*47
$GPGSV,4,1,16,05,04,325,43,06,25,046,46,11,10,008,39,12,17,271,43*7D
$GLGSV,3,1,09,67,27,327,43,68,36,267,38,69,12,219,41,77,26,125,35*6F
$GNGLL,2237.02643,S,04930.10074,W,012358.00,A,D*7B
$GNRMC,012359.00,A,2237.02604,S,04930.09992,W,3.060,61.68,210323,,,D*4A
$GPGSV,4,2,16,13,68,318,53,14,20,129,47,15,45,263,47,17,47,137,51*73
$GLGSV,3,1,09,67,27,327,43,68,36,267,48,69,12,219,40,77,26,125,35*69
$GNGLL,2237.02604,S,04930.09992,W,012359.00,A,D*70
$GNRMC,012400.00,A,2237.02563,S,04930.09915,W,3.008,60.47,210323,,,D*4E
$GPGSV,4,2,16,13,68,318,49,14,20,129,47,15,45,263,49,17,47,137,51*76
$GLGSV,3,1,09,67,27,327,42,68,36,267,50,69,12,219,41,77,26,125,35*60
$GNGLL,2237.02563,S,04930.09915,W,012400.00,A,D*76
$GNRMC,012401.00,A,2237.02523,S,04930.09839,W,3.039,60.12,210323,,,D*46
$GPGSV,4,1,16,05,04,325,40,06,25,046,50,11,10,008,44,12,17,271,37*70
$GLGSV,3,1,09,67,27,327,43,68,36,267,50,69,12,219,42,77,26,125,35*62
$GNGLL,2237.02523,S,04930.09839,W,012401.00,A,D*7C
$GNRMC,012402.00,A,2237.02484,S,04930.09765,W,2.838,61.18,210323,,,D*4C
$GPGSV,4,2,16,13,68,318,49,14,20,129,45,15,45,263,49,17,47,137,51*74
$GLGSV,3,1,09,67,27,327,44,68,36,267,52,69,12,219,42,77,26,125,36*64
$GNGLL,2237.02484,S,04930.09765,W,012402.00,A,D*75
$GNRMC,012403.00,A,2237.02443,S,04930.09693,W,2.917,58.17,210323,,,D*47
$GPGSV,4,1,16,05,04,325,42,06,25,046,48,11,10,008,40,12,17,271,39*71
$GLGSV,3,1,09,67,27,327,44,68,36,267,51,69,12,219,43,77,26,125,36*66
$GNGLL,2237.02443,S,04930.09693,W,012403.00,A,D*77
$GNRMC,012404.00,A,2237.02403,S,04930.09614,W,3.036,61.57,210323,,,D*4E
$GPGSV,4,1,16,05,04,325,43,06,25,046,50,11,10,008,45,12,17,271,42*70
$GLGSV,3,1,09,67,27,327,45,68,36,267,50,69,12,219,40,77,26,125,36*65
$GNGLL,2237.02403,S,04930.09614,W,012404.00,A,D*7B
$GNRMC,012405.00,A,2237.02372,S,04930.09526,W,3.178,70.15,210323,,,D*41
$GPGSV,4,4,16,36,00,087,,46,01,274,,48,05,276,37,49,25,075,47*73
$GLGSV,3,1,09,67,27,327,44,68,36,267,39,69,12,219,38,77,26,125,36*64
$GNGLL,2237.02372,S,04930.09526,W,012405.00,A,D*79
$GNRMC,012406.00,A,2237.02337,S,04930.09435,W,3.344,66.19,210323,,,D*46
$GPGSV,4,1,16,05,04,325,42,06,25,046,48,11,10,008,47,12,17,271,51*78
$GLGSV,3,1,09,67,27,327,45,68,36,267,46,69,12,219,40,77,26,125,36*62
$GNGLL,2237.02337,S,04930.09435,W,012406.00,A,D*78
$GNRMC,012407.00,A,2237.02303,S,04930.09351,W,3.071,66.75,210323,,,D*4A
$GPGSV,4,1,16,05,04,325,40,06,25,046,45,11,10,008,45,12,17,271,50*74
$GLGSV,3,1,09,67,27,327,45,68,36,267,40,69,12,219,40,77,26,125,35*67
$GNGLL,2237.02303,S,04930.09351,W,012407.00,A,D*7B
$GNRMC,012408.00,A,2237.02267,S,04930.09272,W,2.900,63.44,210323,,,D*4F
$GPGSV,4,1,16,05,04,325,38,06,25,046,46,11,10,008,46,12,17,271,39*74
$GLGSV,3,1,09,67,27,327,44,68,36,267,43,69,12,219,41,77,26,125,35*64
$GNGLL,2237.02267,S,04930.09272,W,012408.00,A,D*77
$GNRMC,012409.00,A,2237.02225,S,04930.09195,W,3.006,59.80,210323,,,D*4D
$GPGSV,4,1,16,05,04,325,41,06,25,046,48,11,10,008,46,12,17,271,44*7E
$GLGSV,3,1,09,67,27,327,44,68,36,267,48,69,12,219,41,77,26,125,35*6F
$GNGLL,2237.02225,S,04930.09195,W,012409.00,A,D*7A
$GNRMC,012410.00,A,2237.02183,S,04930.09116,W,3.089,60.83,210323,,,D*4F
$GPGSV,4,4,16,36,00,087,,46,01,274,,48,05,276,37,49,25,075,47*73
$GLGSV,3,1,09,67,27,327,43,68,36,267,46,69,12,219,39,77,26,125,36*6A
$GNGLL,2237.02183,S,04930.09116,W,012410.00,A,D*76
$GNRMC,012411.00,A,2237.02144,S,04930.09040,W,2.950,59.95,210323,,,D*46
$GPGSV,4,2,16,13,68,318,48,14,20,129,46,15,45,263,52,17,47,137,51*7C
$GLGSV,3,1,09,67,27,327,43,68,36,267,46,69,12,219,43,77,26,125,36*67
$GNGLL,2237.02144,S,04930.09040,W,012411.00,A,D*7E
$GNRMC,012412.00,A,2237.02101,S,04930.08968,W,2.901,57.95,210323,,,D*4C
$GPGSV,4,1,16,05,04,325,42,06,25,046,47,11,10,008,43,12,17,271,42*71
$GLGSV,3,1,09,67,27,327,43,68,36,267,52,69,12,219,45,77,26,125,36*64
$GNGLL,2237.02101,S,04930.08968,W,012412.00,A,D*7E
$GNRMC,012413.00,A,2237.02061,S,04930.08892,W,3.025,60.45,210323,,,D*49
$GPGSV,4,2,16,13,68,318,47,14,20,129,44,15,45,263,44,17,47,137,51*76
$GLGSV,3,1,09,67,27,327,44,68,36,267,47,69,12,219,42,77,26,125,37*61
$GNGLL,2237.02061,S,04930.08892,W,012413.00,A,D*7C
$GNRMC,012414.00,A,2237.02026,S,04930.08810,W,2.925,65.54,210323,,,D*4A
$GPGSV,4,1,16,05,04,325,42,06,25,046,50,11,10,008,43,12,17,271,46*73
$GLGSV,3,1,09,67,27,327,44,68,36,267,52,69,12,219,39,77,26,125,36*68
$GNGLL,2237.02026,S,04930.08810,W,012414.00,A,D*72
$GNRMC,012415.00,A,2237.02001,S,04930.08718,W,3.283,72.83,210323,,,D*43
$GPGSV,4,4,16,36,00,087,,46,01,274,,48,05,276,39,49,25,075,47*7D
$GLGSV,3,1,09,67,27,327,44,68,36,267,53,69,12,219,37,77,26,125,36*67
$GNGLL,2237.02001,S,04930.08718,W,012415.00,A,D*71
$GNRMC,012416.00,A,2237.01970,S,04930.08632,W,3.024,68.49,210323,,,D*47
$GPGSV,4,2,16,13,68,318,50,14,20,129,47,15,45,263,42,17,47,137,51*75
$GLGSV,3,1,09,67,27,327,43,68,36,267,42,69,12,219,43,77,26,125,35*60
$GNGLL,2237.01970,S,04930.08632,W,012416.00,A,D*77
$GNRMC,012417.00,A,2237.01935,S,04930.08549,W,2.976,66.84,210323,,,D*48
$GPGSV,4,1,16,05,04,325,43,06,25,046,46,11,10,008,43,12,17,271,43*70
$GLGSV,3,1,09,67,27,327,44,68,36,267,49,69,12,219,45,77,26,125,35*6A
$GNGLL,2237.01935,S,04930.08549,W,012417.00,A,D*78
$GNRMC,012418.00,A,2237.01902,S,04930.08472,W,2.734,65.73,210323,,,D*49
$GPGSV,4,1,16,05,04,325,41,06,25,046,50,11,10,008,47,12,17,271,44*76
$GLGSV,3,1,09,67,27,327,44,68,36,267,48,69,12,219,43,77,26,125,36*6E
$GNGLL,2237.01902,S,04930.08472,W,012418.00,A,D*7A
$GNGSA,A,3,77,67,78,68,88,69,81,87,79,,,,1.15,0.56,1.01*1D
$GPGSV,4,1,16,05,04,325,44,06,25,046,48,11,10,008,45,12,17,271,43*7F
$GLGSV,3,1,09,67,27,327,45,68,36,267,51,69,12,219,38,77,26,125,35*68
$GNGLL,2237.01855,S,04930.08397,W,012419.00,A,D*74
$GNRMC,012420.00,A,2237.01813,S,04930.08314,W,3.159,62.79,210323,,,D*45
$GLGSV,3,1,09,67,27,327,46,68,36,267,52,69,12,219,38,77,26,125,36*6B
$GNGLL,2237.01813,S,04930.08314,W,012420.00,A,D*77
$GNRMC,012421.00,A,2237.01779,S,04930.08231,W,2.990,65.86,210323,,,D*4A
$GPGSV,4,2,16,13,68,318,50,14,20,129,47,15,45,263,46,17,47,137,51*71
$GLGSV,3,1,09,67,27,327,45,68,36,267,49,69,12,219,38,77,26,125,35*61
$GNGLL,2237.01779,S,04930.08231,W,012421.00,A,D*73
$GNRMC,012422.00,A,2237.01743,S,04930.08153,W,2.883,63.23,210323,,,D*4D
$GPGSV,4,1,16,05,04,325,41,06,25,046,53,11,10,008,44,12,17,271,39*7C
$GLGSV,3,1,09,67,27,327,44,68,36,267,45,69,12,219,39,77,26,125,35*6D
$GNGLL,2237.01743,S,04930.08153,W,012422.00,A,D*7E
$GNRMC,012423.00,A,2237.01704,S,04930.08075,W,3.049,62.92,210323,,,D*4E
$GPGSV,4,1,16,05,04,325,41,06,25,046,47,11,10,008,42,12,17,271,39*7F
$GLGSV,3,1,09,67,27,327,41,68,36,267,39,69,12,219,38,77,26,125,35*62
$GNGLL,2237.01704,S,04930.08075,W,012423.00,A,D*79
$GNRMC,012424.00,A,2237.01672,S,04930.07994,W,2.917,68.49,210323,,,D*4F
$GPGSV,4,2,16,13,68,318,50,14,20,129,47,15,45,263,48,17,47,137,51*7F
$GLGSV,3,1,09,67,27,327,43,68,36,267,27,69,12,219,38,77,26,125,35*6F
$GNGLL,2237.01672,S,04930.07994,W,012424.00,A,D*77
$GPGSV,4,3,16,19,73,111,50,20,00,351,,24,21,221,42,30,25,070,47*76
$GLGSV,3,1,09,67,27,327,43,68,36,267,44,69,12,219,38,77,26,125,36*69
$GNGLL,2237.01635,S,04930.07910,W,012425.00,A,D*79
$GNRMC,012426.00,A,2237.01599,S,04930.07827,W,3.004,65.82,210323,,,D*42
$GPGSV,4,1,16,05,04,325,42,06,25,046,44,11,10,008,42,12,17,271,48*79
$GLGSV,3,1,09,67,27,327,43,68,36,267,48,69,12,219,41,77,26,125,36*6B
$GNGLL,2237.01599,S,04930.07827,W,012426.00,A,D*7A
$GNRMC,012427.00,A,2237.01577,S,04930.07746,W,2.740,71.19,210323,,,D*4A
$GPGSV,4,1,16,05,04,325,41,06,25,046,44,11,10,008,38,12,17,271,48*77
$GLGSV,3,1,09,67,26,327,44,68,36,267,46,69,12,219,46,77,26,125,35*67
$GNGLL,2237.01577,S,04930.07746,W,012427.00,A,D*73
$GNRMC,012428.00,A,2237.01544,S,04930.07671,W,2.803,63.24,210323,,,D*45
$GPGSV,4,4,16,36,00,087,,46,01,274,,48,05,276,35,49,25,075,47*71
$GLGSV,3,2,09,78,35,193,44,79,09,240,28,81,21,007,39,87,31,131,44*6D
$GNGLL,2237.01544,S,04930.07671,W,012428.00,A,D*79
$GNRMC,012429.00,A,2237.01498,S,04930.07591,W,3.174,60.08,210323,,,D*4C
$GPGSV,4,2,16,13,68,318,54,14,20,129,46,15,45,263,53,17,47,137,51*70
$GLGSV,3,1,09,67,26,327,43,68,36,268,49,69,12,219,37,77,26,125,35*66
$GNGLL,2237.01498,S,04930.07591,W,012429.00,A,D*75
$GNRMC,012430.00,A,2237.01464,S,04930.07507,W,2.953,66.66,210323,,,D*4A
$GLGSV,3,1,09,67,26,327,41,68,36,268,43,69,12,219,38,77,26,125,35*61
$GNGLL,2237.01464,S,04930.07507,W,012430.00,A,D*71
$GNRMC,012431.00,A,2237.01426,S,04930.07426,W,3.036,61.90,210323,,,D*4A
$GPGSV,4,1,16,05,04,325,43,06,25,046,48,11,10,008,42,12,17,271,46*7A
$GLGSV,3,1,09,67,26,327,43,68,36,268,46,69,12,219,41,77,26,125,35*68
$GNGLL,2237.01426,S,04930.07426,W,012431.00,A,D*74
$GNRMC,012432.00,A,2237.01382,S,04930.07345,W,3.124,59.59,210323,,,D*4E
$GPGSV,4,4,16,36,00,087,,46,01,274,,48,05,276,37,49,25,075,46*72
$GLGSV,3,1,09,67,26,327,43,68,36,268,49,69,12,219,41,77,26,125,35*67
$GNGLL,2237.01382,S,04930.07345,W,012432.00,A,D*7C
$GNRMC,012433.00,A,2237.01345,S,04930.07261,W,3.050,66.54,210323,,,D*40
$GPGSV,4,1,16,05,04,325,41,06,25,046,48,11,10,008,43,12,17,271,39*71
$GLGSV,3,1,09,67,26,327,42,68,36,268,52,69,12,219,43,77,26,125,34*6F
$GNGLL,2237.01345,S,04930.07261,W,012433.00,A,D*71
$GNRMC,012434.00,A,2237.01297,S,04930.07192,W,2.732,54.13,210323,,,D*46
$GPGSV,4,1,16,05,04,325,42,06,25,046,49,11,10,008,45,12,17,271,47*7C
$GLGSV,3,1,09,67,26,327,43,68,36,268,46,69,12,219,41,77,26,125,35*68
$GNGLL,2237.01297,S,04930.07192,W,012434.00,A,D*77
$GNRMC,012435.00,A,2237.01262,S,04930.07109,W,3.189,66.28,210323,,,D*41
$GPGSV,4,4,16,36,00,087,,46,01,274,,48,05,276,37,49,25,075,45*71
$GLGSV,3,1,09,67,26,327,41,68,36,268,43,69,12,219,41,77,26,125,35*6F
$GNGLL,2237.01262,S,04930.07109,W,012435.00,A,D*7E
$GNRMC,012436.00,A,2237.01215,S,04930.07026,W,3.296,57.86,210323,,,D*45
$GPGSV,4,1,16,05,04,325,39,06,25,046,48,11,10,008,42,12,17,271,47*76
$GLGSV,3,1,09,67,26,327,43,68,36,268,36,69,12,219,42,77,26,125,34*6D
$GNGLL,2237.01215,S,04930.07026,W,012436.00,A,D*71
$GNRMC,012437.00,A,2237.01163,S,04930.06945,W,3.241,56.22,210323,,,D*4E
$GPGSV,4,1,16,05,04,325,42,06,25,046,52,11,10,008,47,12,17,271,49*7A
$GLGSV,3,1,09,67,26,327,46,68,36,268,44,69,12,219,40,77,26,125,35*6E
$GNGLL,2237.01163,S,04930.06945,W,012437.00,A,D*7F
$GNRMC,012438.00,A,2237.01116,S,04930.06865,W,3.063,59.32,210323,,,D*4C
$GPGSV,4,2,16,13,68,318,51,14,20,129,46,15,45,263,46,17,47,137,52*72
$GLGSV,3,1,09,67,26,327,45,68,36,268,53,69,12,219,40,77,26,125,35*6B
$GNGLL,2237.01116,S,04930.06865,W,012438.00,A,D*71
$GNRMC,012439.00,A,2237.01072,S,04930.06786,W,2.990,58.58,210323,,,D*45
$GPGSV,4,2,16,13,68,318,52,14,20,129,46,15,45,263,47,17,47,137,52*70
$GLGSV,3,1,09,67,26,327,44,68,36,268,55,69,12,219,41,77,26,125,35*6D
$GNGLL,2237.01072,S,04930.06786,W,012439.00,A,D*71
$GNRMC,012440.00,A,2237.01027,S,04930.06705,W,3.145,59.35,210323,,,D*4B
$GPGSV,4,1,16,05,04,325,43,06,25,046,45,11,10,008,46,12,17,271,46*73
$GLGSV,3,1,09,67,26,327,42,68,36,268,44,69,12,219,43,77,26,125,35*69
$GNGLL,2237.01027,S,04930.06705,W,012440.00,A,D*74
$GNRMC,012441.00,A,2237.00991,S,04930.06618,W,3.187,64.61,210323,,,D*43
$GPGSV,4,4,16,36,00,087,,46,01,274,,48,05,276,36,49,25,075,47*72
$GLGSV,3,1,09,67,26,327,42,68,36,268,49,69,12,219,41,77,26,125,35*66
$GNGLL,2237.00991,S,04930.06618,W,012441.00,A,D*7D
$GNRMC,012442.00,A,2237.00950,S,04930.06533,W,3.102,63.03,210323,,,D*49
$GPGSV,4,4,16,36,00,087,,46,01,274,,48,05,276,36,49,25,075,48*7D
$GLGSV,3,1,09,67,26,327,43,68,36,268,45,69,12,219,41,77,26,125,35*6B
$GNGLL,2237.00950,S,04930.06533,W,012442.00,A,D*79
$GNRMC,012443.00,A,2237.00912,S,04930.06449,W,3.073,64.42,210323,,,D*47
$GPGSV,4,1,16,05,04,325,42,06,25,046,48,11,10,008,46,12,17,271,44*7D
$GLGSV,3,1,09,67,26,327,43,68,36,268,45,69,12,219,40,77,26,125,35*6A
$GNGLL,2237.00912,S,04930.06449,W,012443.00,A,D*72
$GNRMC,012444.00,A,2237.00874,S,04930.06364,W,3.070,64.96,210323,,,D*43
$GPGSV,4,1,16,05,04,325,41,06,25,046,45,11,10,008,44,12,17,271,38*7A
$GLGSV,3,1,09,67,26,327,46,68,36,268,43,69,12,219,40,77,26,125,35*69
$GNGLL,2237.00874,S,04930.06364,W,012444.00,A,D*7C
$GNRMC,012445.00,A,2237.00838,S,04930.06279,W,3.120,64.82,210323,,,D*46
$GPGSV,4,3,16,19,73,111,50,20,00,351,,24,21,221,48,30,25,070,48*73
$GLGSV,3,1,09,67,26,327,46,68,36,268,45,69,12,219,41,77,26,125,35*6E
$GNGLL,2237.00838,S,04930.06279,W,012445.00,A,D*78
$GNGSA,A,3,77,67,78,68,88,69,81,87,79,,,,1.21,0.57,1.07*1D
$GPGSV,4,1,16,05,04,325,43,06,25,046,48,11,10,008,40,12,17,271,38*71
$GLGSV,3,1,09,67,26,327,43,68,36,268,38,69,12,219,37,77,26,125,35*60
$GNGLL,2237.00795,S,04930.06199,W,012446.00,A,D*7E
$GNRMC,012447.00,A,2237.00755,S,04930.06117,W,3.073,64.08,210323,,,D*4E
$GPGSV,4,2,16,13,68,318,48,14,20,129,47,15,45,263,48,17,47,137,51*76
$GLGSV,3,1,09,67,26,327,41,68,36,268,41,69,12,219,40,77,26,125,35*6C
$GNGLL,2237.00755,S,04930.06117,W,012447.00,A,D*75
$GNRMC,012448.00,A,2237.00718,S,04930.06034,W,3.035,64.87,210323,,,D*4D
$GPGSV,4,2,16,13,68,318,50,14,20,129,46,15,45,263,47,17,47,137,51*71
$GLGSV,3,1,09,67,26,327,43,68,36,268,47,69,12,219,43,77,26,125,35*6B
$GNGLL,2237.00718,S,04930.06034,W,012448.00,A,D*73
$GNRMC,012449.00,A,2237.00677,S,04930.05950,W,3.207,62.18,210323,,,D*4F
$GPGSV,4,1,16,05,04,325,43,06,25,046,54,11,10,008,48,12,17,271,40*7B
$GLGSV,3,1,09,67,26,327,44,68,36,268,53,69,12,219,43,77,26,125,35*69
$GNGLL,2237.00677,S,04930.05950,W,012449.00,A,D*72
$GNRMC,012450.00,A,2237.00637,S,04930.05869,W,2.978,62.97,210323,,,D*4D
$GPGSV,4,3,16,19,73,111,51,20,00,351,,24,21,221,52,30,25,070,48*79
$GLGSV,3,1,09,67,26,327,44,68,36,268,51,69,12,219,39,77,26,125,35*66
$GNGLL,2237.00637,S,04930.05869,W,012450.00,A,D*75
$GNRMC,012451.00,A,2237.00586,S,04930.05792,W,3.131,54.86,210323,,,D*4F
$GPGSV,4,1,16,05,04,325,44,06,25,046,48,11,10,008,42,12,17,271,48*73
$GLGSV,3,1,09,67,26,327,45,68,36,268,45,69,12,219,36,77,26,125,35*6D
$GNGLL,2237.00586,S,04930.05792,W,012451.00,A,D*76
$GNRMC,012452.00,A,2237.00539,S,04930.05710,W,3.094,59.54,210323,,,D*4E
$GPGSV,4,1,16,05,04,325,44,06,25,046,47,11,10,008,43,12,17,271,49*7C
$GLGSV,3,1,09,67,26,327,46,68,36,268,50,69,12,219,40,77,26,125,35*6B
$GNGLL,2237.00539,S,04930.05710,W,012452.00,A,D*7B
$GNRMC,012453.00,A,2237.00503,S,04930.05625,W,3.116,63.87,210323,,,D*4D
$GPGSV,4,1,16,05,03,326,44,06,25,046,48,11,10,008,37,12,17,271,49*74
$GLGSV,3,1,09,67,26,327,44,68,36,268,52,69,12,219,41,77,26,125,35*6A
$GNGLL,2237.00503,S,04930.05625,W,012453.00,A,D*74
$GNGSA,A,3,77,67,78,68,88,69,81,87,79,,,,1.16,0.56,1.01*1E
$GPGSV,4,1,16,05,03,326,45,06,25,047,48,11,10,008,44,12,17,271,46*7F
$GLGSV,3,1,09,67,26,327,41,68,36,268,50,69,12,219,43,77,26,125,35*6F
$GNGLL,2237.00463,S,04930.05542,W,012454.00,A,D*76
$GNRMC,012455.00,A,2237.00422,S,04930.05463,W,3.052,61.30,210323,,,D*46
$GPGSV,4,1,16,05,03,326,44,06,25,047,51,11,10,008,48,12,17,271,43*7F
$GLGSV,3,1,09,67,26,327,40,68,36,268,41,69,12,219,43,77,26,125,35*6E
$GNGLL,2237.00422,S,04930.05463,W,012455.00,A,D*70
$GNRMC,012456.00,A,2237.00378,S,04930.05383,W,3.142,60.35,210323,,,D*40
$GPGSV,4,1,16,05,03,326,44,06,25,047,49,11,10,008,46,12,17,271,48*73
$GLGSV,3,1,09,67,26,327,42,68,36,268,40,69,12,219,42,77,26,125,35*6C
$GNGLL,2237.00378,S,04930.05383,W,012456.00,A,D*72
$GNRMC,012457.00,A,2237.00338,S,04930.05304,W,3.082,60.46,210323,,,D*43
$GPGSV,4,2,16,13,68,318,49,14,20,129,46,15,45,263,44,17,47,137,51*7A
$GLGSV,3,1,09,67,26,327,42,68,36,268,49,69,12,219,42,77,26,125,35*65
$GNGLL,2237.00338,S,04930.05304,W,012457.00,A,D*78
$GNRMC,012458.00,A,2237.00302,S,04930.05222,W,3.070,63.77,210323,,,D*4C
$GPGSV,4,2,16,13,68,318,50,14,20,129,46,15,45,263,48,17,47,137,51*7E
$GLGSV,3,1,09,67,26,327,45,68,36,268,47,69,12,219,42,77,26,125,35*6C
$GNGLL,2237.00302,S,04930.05222,W,012458.00,A,D*7B
$GNRMC,012459.00,A,2237.00262,S,04930.05138,W,3.136,63.05,210323,,,D*44
$GPGSV,4,1,16,05,03,326,43,06,25,047,47,11,10,008,50,12,17,271,38*7A
$GLGSV,3,1,09,67,26,327,44,68,36,268,42,69,12,219,42,77,26,125,36*6B
$GNGLL,2237.00262,S,04930.05138,W,012459.00,A,D*75
$GNGSA,A,3,77,67,78,68,88,69,81,87,79,,,,1.16,0.56,1.01*1E
$GPGSV,4,1,16,05,03,326,43,06,25,047,50,11,10,008,48,12,17,271,39*74
$GLGSV,3,1,09,67,26,327,44,68,36,268,46,69,12,219,39,77,26,125,35*60
$GNGLL,2237.00223,S,04930.05054,W,012500.00,A,D*76
$GNGSA,A,3,77,67,78,68,88,69,81,87,79,,,,1.21,0.57,1.07*1D
$GPGSV,4,1,16,05,03,326,43,06,25,047,49,11,10,008,44,12,17,271,45*7B
$GLGSV,3,1,09,67,26,327,43,68,36,268,47,69,12,219,35,77,26,125,36*69
$GNGLL,2237.00184,S,04930.04969,W,012501.00,A,D*7F
$GNRMC,012502.00,A,2237.00142,S,04930.04889,W,3.056,61.62,210323,,,D*4C
$GPGSV,4,1,16,05,03,326,43,06,25,047,45,11,10,008,46,12,17,271,44*74
$GLGSV,3,1,09,67,26,327,41,68,36,268,29,69,12,219,41,77,26,125,35*63
$GNGLL,2237.00142,S,04930.04889,W,012502.00,A,D*79
$GNRMC,012503.00,A,2237.00100,S,04930.04807,W,3.123,62.69,210323,,,D*46
$GPGSV,4,2,16,13,67,319,51,14,19,128,46,15,45,264,42,17,47,137,51*77
$GLGSV,3,1,09,67,26,327,47,68,36,268,44,69,12,219,43,77,26,125,36*6F
$GNGLL,2237.00100,S,04930.04807,W,012503.00,A,D*78
$GNRMC,012504.00,A,2237.00062,S,04930.04725,W,3.074,62.33,210323,,,D*47
$GPGSV,4,1,16,05,03,326,44,06,25,047,44,11,10,008,35,12,17,271,45*77
$GLGSV,3,1,09,67,26,327,46,68,36,268,49,69,12,219,41,77,26,125,36*61
$GNGLL,2237.00062,S,04930.04725,W,012504.00,A,D*75
$GNRMC,012505.00,A,2237.00018,S,04930.04644,W,3.057,60.46,210323,,,D*4C
$GPGSV,4,2,16,13,67,319,48,14,19,128,46,15,45,264,51,17,47,137,50*7C
$GLGSV,3,1,09,67,26,327,44,68,36,268,51,69,12,219,43,77,26,125,36*68
$GNGLL,2237.00018,S,04930.04644,W,012505.00,A,D*7F
$GNRMC,012506.00,A,2236.99974,S,04930.04564,W,3.042,61.87,210323,,,D*44
$GPGSV,4,4,16,36,00,087,,46,01,274,,48,05,276,40,49,25,075,46*72
$GLGSV,3,1,09,67,26,327,41,68,36,268,48,69,12,219,40,77,26,125,36*66
$GNGLL,2236.99974,S,04930.04564,W,012506.00,A,D*7F
$GNRMC,012507.00,A,2236.99930,S,04930.04484,W,3.068,59.12,210323,,,D*45
$GPGSV,4,2,16,13,67,319,51,14,19,128,46,15,45,264,45,17,47,137,51*70
$GLGSV,3,1,09,67,26,327,41,68,36,268,45,69,12,219,41,77,26,125,36*6A
$GNGLL,2236.99930,S,04930.04484,W,012507.00,A,D*71
$GNRMC,012508.00,A,2236.99892,S,04930.04403,W,3.091,62.37,210323,,,D*45
$GPGSV,4,2,16,13,67,319,51,14,19,128,46,15,45,264,49,17,47,137,52*7F
$GLGSV,3,1,09,67,26,327,42,68,36,268,38,69,12,219,43,77,26,125,36*61
$GNGLL,2236.99892,S,04930.04403,W,012508.00,A,D*78
$GNRMC,012509.00,A,2236.99851,S,04930.04321,W,3.107,60.70,210323,,,D*43
$GPGSV,4,1,16,05,03,326,42,06,25,047,50,11,10,008,39,12,17,271,43*7E
$GLGSV,3,1,09,67,26,327,42,68,36,268,41,69,12,219,42,77,26,125,36*6E
$GNGLL,2236.99851,S,04930.04321,W,012509.00,A,D*71
$GNRMC,012510.00,A,2236.99809,S,04930.04238,W,3.128,61.66,210323,,,D*44
$GPGSV,4,1,16,05,03,326,42,06,25,047,52,11,10,008,42,12,17,271,41*72
$GLGSV,3,1,09,67,26,327,38,68,36,268,42,69,12,219,39,77,26,125,36*6C
$GNGLL,2236.99809,S,04930.04238,W,012510.00,A,D*7D
$GNRMC,012511.00,A,2236.99766,S,04930.04156,W,3.152,61.00,210323,,,D*45
$GPGSV,4,1,16,05,03,326,42,06,25,047,50,11,10,008,44,12,17,271,38*78
$GLGSV,3,1,09,67,26,327,40,68,36,268,46,69,12,219,40,77,26,125,36*69
$GNGLL,2236.99766,S,04930.04156,W,012511.00,A,D*71
$GNRMC,012512.00,A,2236.99722,S,04930.04072,W,3.108,61.43,210323,,,D*49
$GPGSV,4,1,16,05,03,326,42,06,25,047,48,11,10,008,44,12,17,271,50*7F
$GLGSV,3,1,09,67,26,327,45,68,36,268,55,69,12,219,38,77,26,125,36*61
$GNGLL,2236.99722,S,04930.04072,W,012512.00,A,D*75
$GNRMC,012513.00,A,2236.99681,S,04930.03989,W,3.117,62.09,210323,,,D*49
$GPGSV,4,1,16,05,03,326,42,06,25,047,43,11,10,008,42,12,17,271,52*70
$GLGSV,3,1,09,67,26,327,45,68,36,268,54,69,12,219,41,77,26,125,36*6E
$GNGLL,2236.99681,S,04930.03989,W,012513.00,A,D*76
$GNRMC,012514.00,A,2236.99639,S,04930.03905,W,3.056,62.13,210323,,,D*46
$GPGSV,4,2,16,13,67,319,50,14,19,128,45,15,45,264,50,17,47,137,51*76
$GLGSV,3,1,09,67,26,327,44,68,36,268,46,69,12,219,42,77,26,125,36*6F
$GNGLL,2236.99639,S,04930.03905,W,012514.00,A,D*76
$GNRMC,012515.00,A,2236.99597,S,04930.03825,W,3.088,60.14,210323,,,D*45
$GPGSV,4,1,16,05,03,326,44,06,25,047,48,11,10,008,39,12,17,271,37*72
$GLGSV,3,1,09,67,26,327,45,68,36,268,47,69,12,219,43,77,26,125,36*6E
$GNGLL,2236.99597,S,04930.03825,W,012515.00,A,D*73
$GNRMC,012516.00,A,2236.99556,S,04930.03742,W,3.032,63.04,210323,,,D*46
$GPGSV,4,4,16,36,00,087,,46,01,274,,48,05,276,40,49,25,075,47*73
$GLGSV,3,1,09,67,26,327,41,68,36,268,49,69,12,219,40,77,26,125,36*67
$GNGLL,2236.99556,S,04930.03742,W,012516.00,A,D*73
$GNRMC,012517.00,A,2236.99520,S,04930.03659,W,3.018,65.05,210323,,,D*42
$GPGSV,4,2,16,13,67,319,50,14,19,128,45,15,45,264,46,17,47,137,51*71
$GLGSV,3,1,09,67,26,327,43,68,36,268,48,69,12,219,40,77,26,125,37*65
$GNGLL,2236.99520,S,04930.03659,W,012517.00,A,D*78
$GNRMC,012518.00,A,2236.99476,S,04930.03577,W,3.166,60.74,210323,,,D*4B
$GPGSV,4,3,16,19,73,113,50,20,00,351,,24,22,221,39,30,24,070,47*7A
$GLGSV,3,1,09,67,26,327,32,68,36,268,40,69,12,219,40,77,26,125,37*6B
$GNGLL,2236.99476,S,04930.03577,W,012518.00,A,D*7A
$GNRMC,012519.00,A,2236.99431,S,04930.03497,W,3.065,59.01,210323,,,D*4C
$GPGSV,4,2,16,13,67,319,50,14,19,128,45,15,45,264,49,17,47,137,51*7E
$GLGSV,3,1,09,67,26,327,22,68,36,268,49,69,12,219,40,77,26,125,36*62
$GNGLL,2236.99431,S,04930.03497,W,012519.00,A,D*77
$GNRMC,012520.00,A,2236.99386,S,04930.03414,W,3.094,61.52,210323,,,D*45
$GPGSV,4,1,16,05,03,326,41,06,25,047,53,11,10,008,42,12,17,271,40*71
$GLGSV,3,1,09,67,26,327,46,68,36,268,50,69,12,219,41,77,26,125,36*69
$GNGLL,2236.99386,S,04930.03414,W,012520.00,A,D*7D
$GNRMC,012521.00,A,2236.99345,S,04930.03328,W,3.090,62.26,210323,,,D*47
$GPGSV,4,1,16,05,03,326,41,06,25,047,50,11,10,008,44,12,17,271,42*76
$GLGSV,3,1,09,67,26,327,47,68,36,268,50,69,12,219,41,77,26,125,36*68
$GNGLL,2236.99345,S,04930.03328,W,012521.00,A,D*7B
$GNRMC,012522.00,A,2236.99303,S,04930.03243,W,3.146,62.63,210323,,,D*41
$GPGSV,4,1,16,05,03,326,41,06,25,047,47,11,10,008,47,12,17,271,39*7F
$GLGSV,3,1,09,67,26,327,44,68,36,268,48,69,12,219,41,77,26,125,35*61
$GNGLL,2236.99303,S,04930.03243,W,012522.00,A,D*76
$GNRMC,012523.00,A,2236.99263,S,04930.03159,W,3.046,62.91,210323,,,D*43
$GPGSV,4,2,16,13,67,319,50,14,19,128,46,15,45,264,46,17,47,137,52*71
$GLGSV,3,1,09,67,26,327,40,68,36,268,46,69,12,219,40,77,26,125,35*6A
$GNGLL,2236.99263,S,04930.03159,W,012523.00,A,D*78
$GNRMC,012524.00,A,2236.99229,S,04930.03074,W,3.044,67.70,210323,,,D*4C
$GPGSV,4,1,16,05,03,326,42,06,25,047,45,11,10,008,51,12,17,271,38*78
$GLGSV,3,1,09,67,26,327,41,68,36,268,50,69,12,219,40,77,26,125,35*6C
$GNGLL,2236.99229,S,04930.03074,W,012524.00,A,D*7F
$GNRMC,012525.00,A,2236.99202,S,04930.02986,W,3.065,71.17,210323,,,D*44
$GPGSV,4,1,16,05,03,326,42,06,25,047,45,11,10,008,46,12,17,271,46*77
$GLGSV,3,1,09,67,26,327,46,68,36,268,52,69,12,219,41,77,26,125,35*68
$GNGLL,2236.99202,S,04930.02986,W,012525.00,A,D*72
$GNGSA,A,3,77,67,78,68,88,69,81,87,79,,,,1.18,0.58,1.02*1D
$GPGSV,4,1,16,05,03,326,41,06,25,047,46,11,10,008,25,12,17,271,50*75
$GLGSV,3,1,09,67,26,327,45,68,36,268,47,69,12,219,42,77,26,125,34*6D
$GNGLL,2236.99176,S,04930.02895,W,012526.00,A,D*72
$GNRMC,012527.00,A,2236.99147,S,04930.02801,W,3.366,71.23,210323,,,D*4D
$GPGSV,4,2,16,13,67,319,46,14,19,128,47,15,45,264,44,17,47,137,51*76
$GLGSV,3,1,09,67,26,327,42,68,36,268,44,69,12,219,42,77,26,125,34*69
$GNGLL,2236.99147,S,04930.02801,W,012527.00,A,D*7C
$GNRMC,012528.00,A,2236.99107,S,04930.02710,W,3.194,65.77,210323,,,D*42
$GPGSV,4,2,16,13,67,319,50,14,19,128,47,15,45,264,43,17,47,137,51*76
$GLGSV,3,1,09,67,26,327,42,68,36,268,44,69,12,219,39,77,26,125,35*64
$GNGLL,2236.99107,S,04930.02710,W,012528.00,A,D*78
$GNRMC,012529.00,A,2236.99063,S,04930.02625,W,3.062,62.42,210323,,,D*4E
$GPGSV,4,2,16,13,67,319,53,14,19,128,47,15,45,264,45,17,47,137,51*73
$GLGSV,3,1,09,67,26,327,37,68,36,268,45,69,12,219,37,77,26,125,35*69
$GNGLL,2236.99063,S,04930.02625,W,012529.00,A,D*7D
$GNRMC,012530.00,A,2236.99024,S,04930.02544,W,3.109,62.67,210323,,,D*4A
$GPGSV,4,1,16,05,03,326,39,06,25,047,51,11,10,008,34,12,17,271,42*7F
$GLGSV,3,1,09,67,26,327,44,68,36,268,40,69,12,219,42,77,26,125,34*6B
$GNGLL,2236.99024,S,04930.02544,W,012530.00,A,D*72
$GNRMC,012531.00,A,2236.98983,S,04930.02460,W,3.133,63.48,210323,,,D*4C
$GPGSV,4,1,16,05,03,326,39,06,25,047,50,11,10,008,42,12,17,271,41*7C
$GLGSV,3,1,09,67,26,327,48,68,36,268,47,69,12,219,45,77,26,125,34*67
$GNGLL,2236.98983,S,04930.02460,W,012531.00,A,D*71
$GNRMC,012532.00,A,2236.98942,S,04930.02374,W,3.150,63.43,210323,,,D*4E
$GPGSV,4,1,16,05,03,326,39,06,25,047,50,11,10,008,42,12,17,271,47*7A
$GLGSV,3,1,09,67,26,327,43,68,36,268,47,69,12,219,46,77,26,125,34*6F
$GNGLL,2236.98942,S,04930.02374,W,012532.00,A,D*7D
$GNRMC,012533.00,A,2236.98896,S,04930.02290,W,3.183,60.74,210323,,,D*45
$GPGSV,4,1,16,05,03,326,38,06,25,047,50,11,10,008,46,12,17,271,50*79
$GLGSV,3,1,09,67,26,327,37,68,36,268,48,69,12,219,45,77,26,125,35*61
$GNGLL,2236.98896,S,04930.02290,W,012533.00,A,D*7F
$GNRMC,012534.00,A,2236.98851,S,04930.02208,W,3.070,60.04,210323,,,D*42
$GPGSV,4,1,16,05,03,326,38,06,25,047,45,11,10,008,44,12,17,271,48*76
$GLGSV,3,1,09,67,26,327,40,68,36,268,50,69,12,219,41,77,26,125,34*6D
$GNGLL,2236.98851,S,04930.02208,W,012534.00,A,D*72
$GNRMC,012535.00,A,2236.98814,S,04930.02124,W,3.098,65.22,210323,,,D*48
$GPGSV,4,1,16,05,03,326,38,06,25,047,43,11,10,008,44,12,17,271,44*7C
$GLGSV,3,1,09,67,26,327,39,68,36,268,39,69,12,219,42,77,26,125,34*6F
$GNGLL,2236.98814,S,04930.02124,W,012535.00,A,D*7F
$GNRMC,012536.00,A,2236.98775,S,04930.02038,W,3.194,64.02,210323,,,D*41
$GNGLL,2236.98775,S,04930.02038,W,012536.00,A,D*78
$GNRMC,012537.00,A,2236.98734,S,04930.01953,W,3.201,62.59,210323,,,D*45
$GPGSV,4,2,16,13,67,319,49,14,19,128,46,15,45,264,51,17,47,137,51*7C
$GLGSV,3,1,09,67,26,327,46,68,36,268,54,69,12,219,43,77,26,125,34*6D
$GNGLL,2236.98734,S,04930.01953,W,012537.00,A,D*7B
$GNRMC,012538.00,A,2236.98694,S,04930.01868,W,3.192,62.98,210323,,,D*4C
$GPGSV,4,2,16,13,67,319,47,14,19,128,47,15,45,264,44,17,47,137,51*77
$GLGSV,3,1,09,67,26,327,42,68,36,268,41,69,12,219,42,77,26,125,35*6D
$GNGLL,2236.98694,S,04930.01868,W,012538.00,A,D*76
$GNRMC,012539.00,A,2236.98659,S,04930.01781,W,3.051,67.42,210323,,,D*48
$GPGSV,4,2,16,13,67,319,50,14,19,128,47,15,45,264,38,17,47,137,51*7A
$GLGSV,3,1,09,67,26,328,40,68,36,268,44,69,12,219,40,77,26,125,35*67
$GNGLL,2236.98659,S,04930.01781,W,012539.00,A,D*7E
$GNRMC,012540.00,A,2236.98624,S,04930.01694,W,3.166,66.09,210323,,,D*42
$GPGSV,4,2,16,13,67,319,51,14,19,128,47,15,45,264,43,17,47,137,51*77
$GLGSV,3,1,09,67,26,328,44,68,36,268,46,69,12,219,40,77,26,125,35*61
$GNGLL,2236.98624,S,04930.01694,W,012540.00,A,D*7F
$GNRMC,012541.00,A,2236.98584,S,04930.01609,W,3.213,63.31,210323,,,D*41
$GLGSV,3,3,09,88,51,066,48*54
$GNGLL,2236.98584,S,04930.01609,W,012541.00,A,D*73
$GNRMC,012542.00,A,2236.98546,S,04930.01520,W,3.234,66.42,210323,,,D*40
$GPGSV,4,1,16,05,03,326,38,06,25,047,46,11,10,008,46,12,17,271,39*71
$GLGSV,3,1,09,67,26,328,40,68,36,268,49,69,12,220,39,77,26,125,35*6E
$GNGLL,2236.98546,S,04930.01520,W,012542.00,A,D*76
$GNRMC,012543.00,A,2236.98507,S,04930.01435,W,3.180,62.73,210323,,,D*4B
$GPGSV,4,1,16,05,03,326,39,06,25,047,43,11,10,008,37,12,17,271,43*7E
$GLGSV,3,1,09,67,26,328,45,68,36,268,50,69,12,220,44,77,26,125,34*68
$GNGLL,2236.98507,S,04930.01435,W,012543.00,A,D*77
$GNRMC,012544.00,A,2236.98461,S,04930.01348,W,3.275,62.17,210323,,,D*4B
$GPGSV,4,1,16,05,03,326,39,06,25,047,47,11,10,008,45,12,17,271,43*7F
$GLGSV,3,1,09,67,26,328,46,68,36,268,48,69,12,220,45,77,26,125,35*62
$GNGLL,2236.98461,S,04930.01348,W,012544.00,A,D*7C
$GNRMC,012545.00,A,2236.98414,S,04930.01270,W,2.921,57.98,210323,,,D*48
$GPGSV,4,2,16,13,67,319,47,14,19,128,48,15,45,264,51,17,47,137,51*7C
$GLGSV,3,1,09,67,26,328,44,68,36,268,44,69,12,220,44,77,26,125,34*6C
$GNGLL,2236.98414,S,04930.01270,W,012545.00,A,D*75
$GNRMC,012546.00,A,2236.98367,S,04930.01192,W,3.170,59.11,210323,,,D*45
$GPGSV,4,4,16,36,00,087,,46,01,274,,48,05,276,36,49,25,075,46*73
$GLGSV,3,1,09,67,26,328,42,68,36,268,37,69,12,220,40,77,26,125,35*6B
$GNGLL,2236.98367,S,04930.01192,W,012546.00,A,D*7A
$GNRMC,012547.00,A,2236.98320,S,04930.01108,W,3.106,59.47,210323,,,D*46
$GPGSV,4,1,16,05,03,326,40,06,25,047,44,11,10,008,43,12,17,271,48*7F
$GLGSV,3,1,09,67,26,328,44,68,36,268,44,69,12,220,39,77,26,125,35*67
$GNGLL,2236.98320,S,04930.01108,W,012547.00,A,D*7B
$GNRMC,012548.00,A,2236.98281,S,04930.01025,W,3.171,62.75,210323,,,D*44
$GPGSV,4,1,16,05,03,326,40,06,25,047,49,11,10,008,32,12,17,271,47*7B
$GLGSV,3,1,09,67,26,328,41,68,36,268,45,69,12,220,40,77,26,125,35*6D
$GNGLL,2236.98281,S,04930.01025,W,012548.00,A,D*70
$GNRMC,012549.00,A,2236.98240,S,04930.00944,W,3.078,60.26,210323,,,D*4B
$GPGSV,4,1,16,05,03,326,40,06,25,047,53,11,10,008,39,12,17,271,46*7A
$GLGSV,3,1,09,67,26,328,43,68,36,268,44,69,12,220,40,77,25,124,35*6C
$GNGLL,2236.98240,S,04930.00944,W,012549.00,A,D*73
$GNRMC,012550.00,A,2236.98198,S,04930.00866,W,3.008,58.98,210323,,,D*4D
$GPGSV,4,1,16,05,03,326,40,06,25,047,49,11,10,008,29,12,17,271,46*70
$GLGSV,3,1,09,67,26,328,43,68,36,268,47,69,12,220,42,77,25,124,35*6D
$GNGLL,2236.98198,S,04930.00866,W,012550.00,A,D*7C
$GNRMC,012551.00,A,2236.98158,S,04930.00785,W,3.015,63.61,210323,,,D*40
$GPGSV,4,1,16,05,03,326,40,06,25,047,47,11,10,008,44,12,17,271,45*76
$GLGSV,3,1,09,67,26,328,41,68,36,268,44,69,12,220,43,77,25,124,36*6E
$GNGLL,2236.98158,S,04930.00785,W,012551.00,A,D*73
$GNRMC,012552.00,A,2236.98114,S,04930.00703,W,3.176,60.52,210323,,,D*42
$GPGSV,4,1,16,05,03,326,39,06,25,047,45,11,10,008,46,12,17,271,41*7C
$GLGSV,3,1,09,67,26,328,45,68,36,268,46,69,12,220,43,77,25,124,36*68
$GNGLL,2236.98114,S,04930.00703,W,012552.00,A,D*76
$GNRMC,012553.00,A,2236.98074,S,04930.00620,W,3.060,64.33,210323,,,D*41
$GPGSV,4,1,16,05,03,326,40,06,25,047,49,11,10,008,47,12,17,271,41*7F
$GLGSV,3,1,09,67,26,328,45,68,36,268,52,69,12,220,41,77,25,124,36*6F
$GNGLL,2236.98074,S,04930.00620,W,012553.00,A,D*70
$GNGSA,A,3,77,67,78,68,88,69,81,87,79,,,,1.16,0.56,1.02*1D
$GPGSV,4,1,16,05,03,326,40,06,25,047,50,11,10,008,43,12,17,271,44*76
$GLGSV,3,1,09,67,26,328,45,68,36,268,53,69,12,220,39,77,25,124,36*61
$GNGLL,2236.98037,S,04930.00537,W,012554.00,A,D*75
$GNRMC,012555.00,A,2236.97995,S,04930.00458,W,3.070,61.18,210323,,,D*4E
$GPGSV,4,1,16,05,03,326,39,06,25,047,47,11,10,008,48,12,17,271,46*77
$GLGSV,3,1,09,67,26,328,44,68,36,268,49,69,12,220,40,77,25,124,35*66
$GNGLL,2236.97995,S,04930.00458,W,012555.00,A,D*72
$GNRMC,012556.00,A,2236.97953,S,04930.00377,W,3.059,62.77,210323,,,D*4C
$GPGSV,4,2,16,13,67,319,49,14,19,128,46,15,45,264,46,17,47,137,51*7A
