$GNGLL,2236.69677,S,04930.05693,W,180538.00,A,A*74
$GNRMC,180539.00,A,2236.69677,S,04930.05692,W,0.020,,200323,,,A*6F
$GNGGA,180539.00,2236.69677,S,04930.05692,W,1,12,0.57,646.6,M,-5.2,M,,*58
$GNGSA,A,3,74,73,65,88,87,71,86,75,72,,,,1.21,0.57,1.06*1F
$GPGSV,3,1,10,01,32,353,47,03,69,112,51,04,49,185,49,06,20,229,47*70
$GLGSV,3,1,09,65,16,221,34,71,25,110,42,72,39,168,39,73,15,147,37*67
$GNGLL,2236.69677,S,04930.05692,W,180539.00,A,A*74
$GNRMC,180540.00,A,2236.69677,S,04930.05692,W,0.015,,200323,,,A*67
$GNGGA,180540.00,2236.69677,S,04930.05692,W,1,12,0.57,646.6,M,-5.2,M,,*56
$GNGSA,A,3,74,73,65,88,87,71,86,75,72,,,,1.21,0.57,1.06*1F
$GPGSV,3,1,10,01,32,353,47,03,69,112,51,04,49,185,49,06,20,229,47*70
$GLGSV,3,1,09,65,16,221,34,71,25,110,41,72,39,168,39,73,15,147,37*64
$GNGLL,2236.69677,S,04930.05692,W,180540.00,A,A*7A
$GNRMC,180541.00,A,2236.69677,S,04930.05691,W,0.003,,200323,,,A*62
$GNGGA,180541.00,2236.69677,S,04930.05691,W,1,12,0.57,646.6,M,-5.2,M,,*54
$GNGSA,A,3,74,73,65,88,87,71,86,75,72,,,,1.21,0.57,1.06*1F
$GPGSV,3,1,10,01,32,353,47,03,69,112,51,04,49,185,49,06,20,229,47*70
$GLGSV,3,1,09,65,16,221,34,71,25,110,41,72,39,168,39,73,15,147,37*64
$GNGLL,2236.69677,S,04930.05691,W,180541.00,A,A*78
$GNRMC,180542.00,A,2236.69677,S,04930.05691,W,0.003,,200323,,,A*61
$GNGGA,180542.00,2236.69677,S,04930.05691,W,1,12,0.57,646.5,M,-5.2,M,,*54
$GNGSA,A,3,01,03,04,06,07,09,16,21,26,,,,1.21,0.57,1.06*15
$GPGSV,3,1,10,01,32,353,47,03,69,112,51,04,49,185,49,06,20,229,47*70
$GLGSV,3,1,09,65,16,221,34,71,25,110,42,72,39,168,39,73,15,147,37*67
$GNGLL,2236.69677,S,04930.05691,W,180542.00,A,A*7B
$GNRMC,180543.00,A,2236.69677,S,04930.05690,W,0.010,,200323,,,A*63
$GNGGA,180543.00,2236.69677,S,04930.05690,W,1,12,0.57,646.5,M,-5.2,M,,*54
$GNGSA,A,3,01,03,04,06,07,09,16,21,26,,,,1.21,0.57,1.06*15
$GPGSV,3,1,10,01,32,353,47,03,69,112,51,04,49,185,49,06,20,229,47*70
$GLGSV,3,1,09,65,16,221,34,71,25,110,42,72,39,168,39,73,15,147,37*67
$GNGLL,2236.69677,S,04930.05690,W,180543.00,A,A*7B
$GNRMC,180544.00,A,2236.69677,S,04930.05690,W,0.007,,200323,,,A*62
$GNGGA,180544.00,2236.69677,S,04930.05690,W,1,12,0.57,646.5,M,-5.2,M,,*53
$GNGSA,A,3,01,03,04,06,07,09,16,21,26,,,,1.21,0.57,1.06*15
$GPGSV,3,1,10,01,32,353,47,03,69,112,51,04,49,185,49,06,20,229,47*70
$GLGSV,3,1,09,65,16,221,34,71,25,110,42,72,39,168,39,73,15,147,37*67
$GNGLL,2236.69677,S,04930.05690,W,180544.00,A,A*7C
$GNRMC,180545.00,A,2236.69678,S,04930.05690,W,0.002,,200323,,,A*69
$GNGGA,180545.00,2236.69678,S,04930.05690,W,1,12,0.57,646.5,M,-5.2,M,,*5D
$GNGSA,A,3,01,03,04,06,07,09,16,21,26,,,,1.21,0.57,1.06*15
$GPGSV,3,1,10,01,32,353,47,03,69,112,51,04,49,185,49,06,20,229,47*70
$GLGSV,3,1,09,65,16,221,35,71,25,110,41,72,39,168,39,73,15,147,36*64
$GNGLL,2236.69678,S,04930.05690,W,180545.00,A,A*72
$GNRMC,180546.00,A,2236.69677,S,04930.05690,W,0.015,,200323,,,A*63
$GPGSV,3,1,10,01,32,353,47,03,69,112,51,04,49,185,49,06,20,229,47*70
$GLGSV,3,1,09,65,16,221,35,71,25,110,42,72,39,168,39,73,15,147,37*66
$GNGLL,2236.69677,S,04930.05690,W,180546.00,A,A*7E
$GNRMC,180547.00,A,2236.69677,S,04930.05690,W,0.005,,200323,,,A*63
$GPGSV,3,2,10,07,40,314,48,09,37,232,49,16,29,087,47,21,10,010,44*70
$GLGSV,3,1,09,65,16,221,34,71,25,110,42,72,39,168,39,73,15,147,37*67
$GNGLL,2236.69677,S,04930.05690,W,180547.00,A,A*7F
$GNRMC,180548.00,A,2236.69677,S,04930.05691,W,0.010,,200323,,,A*69
$GPGSV,3,1,10,01,32,353,47,03,69,112,51,04,49,185,49,06,20,229,47*70
$GLGSV,3,1,09,65,16,221,34,71,25,110,42,72,39,168,40,73,15,147,37*69
$GNGLL,2236.69677,S,04930.05691,W,180548.00,A,A*71
$GNRMC,180549.00,A,2236.69677,S,04930.05691,W,0.009,,200323,,,A*60
$GPGSV,3,1,10,01,32,353,47,03,69,112,51,04,49,185,49,06,20,229,48*7F
$GLGSV,3,1,09,65,16,221,34,71,25,110,42,72,39,168,39,73,15,147,37*67
$GNGLL,2236.69677,S,04930.05691,W,180549.00,A,A*70
$GPGSV,3,1,10,01,32,353,47,03,69,112,51,04,49,185,49,06,20,229,48*7F
$GLGSV,3,1,09,65,16,221,34,71,25,110,42,72,39,168,40,73,15,147,37*69
$GNGLL,2236.69677,S,04930.05692,W,180551.00,A,A*7A
$GNRMC,180552.00,A,2236.69677,S,04930.05694,W,0.083,,200323,,,D*68
$GPGSV,3,1,10,01,32,353,47,03,69,112,51,04,49,185,49,06,20,229,47*70
$GLGSV,3,1,09,65,16,221,35,71,25,110,42,72,39,167,40,73,15,147,37*67
$GNGLL,2236.69677,S,04930.05694,W,180552.00,A,D*7A
$GNRMC,180553.00,A,2236.69677,S,04930.05695,W,0.013,,200323,,,D*61
$GPGSV,3,1,10,01,32,353,47,03,69,112,51,04,49,185,49,06,20,229,47*70
$GLGSV,3,1,09,65,16,221,34,71,25,110,42,72,39,167,40,73,15,148,37*69
$GNGLL,2236.69677,S,04930.05695,W,180553.00,A,D*7A
$GNRMC,180554.00,A,2236.69679,S,04930.05695,W,0.011,,200323,,,D*6A
$GPGSV,3,1,10,01,32,353,47,03,69,112,51,04,49,185,49,06,20,229,47*70
$GLGSV,3,1,09,65,16,221,34,71,25,110,42,72,39,167,40,73,15,148,36*68
$GNGLL,2236.69679,S,04930.05695,W,180554.00,A,D*73
$GNRMC,180555.00,A,2236.69681,S,04930.05696,W,0.020,,200323,,,D*6D
$GPGSV,3,1,10,01,32,353,47,03,69,112,51,04,49,185,49,06,20,229,47*70
$GLGSV,3,1,09,65,16,221,34,71,25,110,42,72,39,167,40,73,15,148,36*68
$GNGLL,2236.69681,S,04930.05696,W,180555.00,A,D*76
$GNRMC,180556.00,A,2236.69682,S,04930.05696,W,0.001,,200323,,,D*6E
$GPGSV,3,1,10,01,32,353,47,03,69,112,51,04,49,185,49,06,20,229,48*7F
$GLGSV,3,1,09,65,16,221,34,71,25,110,42,72,39,167,40,73,15,148,36*68
$GNGLL,2236.69682,S,04930.05696,W,180556.00,A,D*76
$GNRMC,180557.00,A,2236.69683,S,04930.05697,W,0.006,,200323,,,D*68
$GPGSV,3,1,10,01,32,353,47,03,69,112,51,04,49,185,49,06,20,229,48*7F
$GLGSV,3,1,09,65,16,221,35,71,25,110,42,72,39,167,40,73,14,148,36*68
$GNGLL,2236.69683,S,04930.05697,W,180557.00,A,D*77
$GNRMC,180558.00,A,2236.69684,S,04930.05697,W,0.008,,200323,,,D*6E
$GPGSV,3,1,10,01,32,353,47,03,69,112,51,04,49,185,49,06,20,229,48*7F
$GLGSV,3,1,09,65,16,221,35,71,25,110,41,72,39,167,40,73,14,148,36*6B
$GNGLL,2236.69684,S,04930.05697,W,180558.00,A,D*7F
$GNRMC,180559.00,A,2236.69684,S,04930.05696,W,0.002,,200323,,,D*64
$GPGSV,3,1,10,01,32,353,47,03,69,112,50,04,49,185,49,06,20,229,48*7E
$GLGSV,3,1,09,65,16,221,35,71,25,110,41,72,39,167,40,73,14,148,36*6B
$GNGLL,2236.69684,S,04930.05696,W,180559.00,A,D*7F
$GNRMC,180600.00,A,2236.69685,S,04930.05695,W,0.008,,200323,,,D*63
$GPGSV,3,2,10,07,40,314,48,09,37,232,49,16,29,087,47,21,10,010,44*70
$GLGSV,3,1,09,65,16,221,35,71,25,110,41,72,39,167,40,73,14,148,36*6B
$GNGLL,2236.69685,S,04930.05695,W,180600.00,A,D*72
$GNRMC,180601.00,A,2236.69685,S,04930.05694,W,0.004,,200323,,,D*6F
$GPGSV,3,1,10,01,32,353,47,03,69,112,50,04,49,185,49,06,20,229,47*71
$GLGSV,3,1,09,65,16,221,35,71,25,110,42,72,39,167,40,73,14,148,35*6B
$GNGLL,2236.69685,S,04930.05694,W,180601.00,A,D*72
$GPGSV,3,3,10,26,17,122,44,49,25,075,47*70
$GLGSV,3,2,09,74,54,116,40,75,47,014,41,86,10,343,31,87,28,287,39*67
$GNGLL,2236.69686,S,04930.05693,W,180602.00,A,D*75
$GNRMC,180603.00,A,2236.69686,S,04930.05692,W,0.008,,200323,,,D*64
$GPGSV,3,1,10,01,32,353,47,03,69,112,51,04,49,185,49,06,20,229,47*70
$GLGSV,3,1,09,65,16,221,35,71,25,110,41,72,39,167,40,73,14,148,36*6B
$GNGLL,2236.69686,S,04930.05692,W,180603.00,A,D*75
$GNRMC,180604.00,A,2236.69686,S,04930.05691,W,0.020,,200323,,,D*6A
$GPGSV,3,1,10,01,32,353,47,03,69,112,51,04,49,185,49,06,20,229,47*70
$GLGSV,3,1,09,65,16,221,35,71,25,110,41,72,39,167,40,73,14,148,36*6B
$GNGLL,2236.69686,S,04930.05691,W,180604.00,A,D*71
$GNRMC,180605.00,A,2236.69686,S,04930.05690,W,0.007,,200323,,,D*6F
$GPGSV,3,1,10,01,32,353,46,03,69,112,51,04,49,185,49,06,20,229,47*71
$GLGSV,3,1,09,65,16,221,34,71,25,110,41,72,39,167,40,73,14,148,36*6A
$GNGLL,2236.69686,S,04930.05690,W,180605.00,A,D*71
$GNRMC,180606.00,A,2236.69685,S,04930.05689,W,0.009,,200323,,,D*69
$GPGSV,3,2,10,07,40,314,48,09,37,232,49,16,29,087,47,21,10,010,44*70
$GLGSV,3,1,09,65,16,221,35,71,25,110,41,72,39,167,40,73,14,148,35*68
$GNGLL,2236.69685,S,04930.05689,W,180606.00,A,D*79
$GNRMC,180607.00,A,2236.69685,S,04930.05687,W,0.006,,200323,,,D*69
$GPGSV,3,1,10,01,32,353,47,03,69,111,50,04,49,185,49,06,20,229,47*72
$GLGSV,3,1,09,65,16,221,35,71,25,110,41,72,39,167,40,73,14,148,35*68
$GNGLL,2236.69685,S,04930.05687,W,180607.00,A,D*76
$GNRMC,180608.00,A,2236.69684,S,04930.05686,W,0.002,,200323,,,D*62
$GPGSV,3,2,10,07,40,314,48,09,37,232,49,16,29,087,47,21,10,010,44*70
$GLGSV,3,1,09,65,16,221,35,71,25,110,41,72,39,167,40,73,14,148,35*68
$GNGLL,2236.69684,S,04930.05686,W,180608.00,A,D*79
$GNRMC,180609.00,A,2236.69683,S,04930.05684,W,0.003,,200323,,,D*67
$GPGSV,3,2,10,07,40,314,48,09,37,232,49,16,29,087,47,21,10,010,44*70
$GLGSV,3,1,09,65,16,221,35,71,25,110,42,72,39,167,40,73,14,148,35*6B
$GNGLL,2236.69683,S,04930.05684,W,180609.00,A,D*7D
$GNRMC,180610.00,A,2236.69682,S,04930.05683,W,0.005,,200323,,,D*6F
$GPGSV,3,1,10,01,32,353,46,03,69,111,50,04,49,184,49,06,20,229,48*7D
$GLGSV,3,1,09,65,16,221,35,71,25,110,42,72,39,167,40,73,14,148,35*6B
$GNGLL,2236.69682,S,04930.05683,W,180610.00,A,D*73
$GNRMC,180611.00,A,2236.69681,S,04930.05682,W,0.004,,200323,,,D*6D
$GPGSV,3,1,10,01,32,353,46,03,69,111,50,04,49,184,49,06,20,229,48*7D
$GLGSV,3,1,09,65,16,221,35,71,25,110,42,72,39,167,40,73,14,148,36*68
$GNGLL,2236.69681,S,04930.05682,W,180611.00,A,D*70
$GNRMC,180612.00,A,2236.69680,S,04930.05681,W,0.015,,200323,,,D*6C
$GPGSV,3,1,10,01,32,353,46,03,69,111,50,04,49,184,49,06,20,229,48*7D
$GLGSV,3,1,09,65,16,221,35,71,25,110,42,72,39,167,40,73,14,148,36*68
$GNGLL,2236.69680,S,04930.05681,W,180612.00,A,D*71
$GNRMC,180613.00,A,2236.69679,S,04930.05680,W,0.009,,200323,,,D*67
$GPGSV,3,1,10,01,32,353,46,03,69,111,50,04,49,184,49,06,20,229,48*7D
$GLGSV,3,1,09,65,16,221,35,71,25,110,42,72,39,167,40,73,14,148,36*68
$GNGLL,2236.69679,S,04930.05680,W,180613.00,A,D*77
$GNRMC,180614.00,A,2236.69678,S,04930.05679,W,0.003,,200323,,,D*6D
$GPGSV,3,1,10,01,32,353,46,03,69,111,50,04,49,184,49,06,20,229,48*7D
$GLGSV,3,1,09,65,16,221,35,71,25,110,41,72,39,167,40,73,14,148,36*6B
$GNGLL,2236.69678,S,04930.05679,W,180614.00,A,D*77
$GNRMC,180615.00,A,2236.69677,S,04930.05678,W,0.005,,200323,,,D*64
$GPGSV,3,1,10,01,32,353,46,03,69,111,50,04,49,184,49,06,20,229,48*7D
$GLGSV,3,1,09,65,16,221,35,71,25,110,42,72,39,167,40,73,14,148,36*68
$GNGLL,2236.69677,S,04930.05678,W,180615.00,A,D*78
$GNRMC,180616.00,A,2236.69676,S,04930.05676,W,0.012,,200323,,,D*6E
$GPGSV,3,1,10,01,32,353,46,03,69,111,50,04,49,184,49,06,20,229,48*7D
$GLGSV,3,1,09,65,16,221,35,71,25,110,42,72,39,167,40,73,14,148,36*68
$GNGLL,2236.69676,S,04930.05676,W,180616.00,A,D*74
$GNRMC,180617.00,A,2236.69675,S,04930.05676,W,0.006,,200323,,,D*69
$GPGSV,3,2,10,07,40,314,48,09,37,232,50,16,29,087,47,21,10,010,44*78
$GLGSV,3,1,09,65,16,221,35,71,25,110,42,72,39,167,40,73,14,148,36*68
$GNGLL,2236.69675,S,04930.05676,W,180617.00,A,D*76
$GNRMC,180618.00,A,2236.69674,S,04930.05675,W,0.001,,200323,,,D*63
$GPGSV,3,2,10,07,40,314,48,09,37,232,50,16,29,087,47,21,10,010,44*78
$GLGSV,3,1,09,65,16,221,35,71,25,110,42,72,39,167,40,73,14,148,36*68
$GNGLL,2236.69674,S,04930.05675,W,180618.00,A,D*7B
$GNRMC,180619.00,A,2236.69672,S,04930.05674,W,0.005,,200323,,,D*61
$GPGSV,3,1,10,01,32,353,46,03,69,111,51,04,49,184,49,06,20,229,47*73
$GLGSV,3,1,10,65,16,221,35,71,25,110,42,72,39,167,40,73,14,148,37*61
$GNGLL,2236.69672,S,04930.05674,W,180619.00,A,D*7D
$GNGSA,A,3,01,03,04,06,07,09,16,21,26,,,,1.20,0.57,1.06*14
$GPGSV,3,1,10,01,32,353,46,03,69,111,51,04,49,184,49,06,20,229,47*73
$GLGSV,3,1,10,65,16,221,36,71,25,110,42,72,39,167,40,73,14,148,36*63
$GNGLL,2236.69671,S,04930.05674,W,180620.00,A,D*74
$GNRMC,180621.00,A,2236.69670,S,04930.05673,W,0.005,,200323,,,D*6F
$GNGSA,A,3,74,73,65,88,87,71,86,75,72,,,,1.20,0.57,1.06*1E
$GPGSV,3,1,10,01,32,353,46,03,69,111,51,04,49,184,49,06,20,229,47*73
$GLGSV,3,1,10,65,16,221,35,71,25,110,42,72,39,167,40,73,14,148,36*60
$GNGLL,2236.69670,S,04930.05673,W,180621.00,A,D*73
$GNRMC,180622.00,A,2236.69669,S,04930.05673,W,0.002,,200323,,,D*63
$GPGSV,3,1,10,01,32,353,46,03,69,111,51,04,49,184,49,06,20,229,48*7C
$GLGSV,3,1,10,65,16,221,35,71,25,110,42,72,39,167,40,73,14,148,36*60
$GNGLL,2236.69669,S,04930.05673,W,180622.00,A,D*78
$GNRMC,180623.00,A,2236.69668,S,04930.05672,W,0.008,,200323,,,D*68
$GPGSV,3,1,10,01,32,353,46,03,69,111,51,04,49,184,49,06,20,229,48*7C
$GLGSV,3,1,10,65,16,221,35,71,25,110,42,72,39,167,40,73,14,148,36*60
$GNGLL,2236.69668,S,04930.05672,W,180623.00,A,D*79
$GNRMC,180624.00,A,2236.69667,S,04930.05672,W,0.017,,200323,,,D*6E
$GPGSV,3,1,10,01,32,353,46,03,69,111,51,04,49,184,49,06,20,229,48*7C
$GLGSV,3,1,10,65,16,221,35,71,25,110,42,72,39,167,40,73,14,148,36*60
$GNGLL,2236.69667,S,04930.05672,W,180624.00,A,D*71
$GNRMC,180625.00,A,2236.69666,S,04930.05672,W,0.010,,200323,,,D*69
$GPGSV,3,1,10,01,32,353,46,03,69,111,51,04,49,184,49,06,20,229,48*7C
$GLGSV,3,1,10,65,16,221,35,71,25,110,42,72,39,167,40,73,14,148,36*60
$GNGLL,2236.69666,S,04930.05672,W,180625.00,A,D*71
$GNRMC,180626.00,A,2236.69665,S,04930.05672,W,0.009,,200323,,,D*61
$GNGSA,A,3,74,73,65,88,87,71,86,75,72,,,,1.20,0.57,1.06*1E
$GPGSV,3,1,10,01,32,353,46,03,69,111,51,04,49,184,49,06,20,229,48*7C
$GLGSV,3,1,10,65,16,221,35,71,25,110,42,72,39,167,40,73,14,148,36*60
$GNGLL,2236.69665,S,04930.05672,W,180626.00,A,D*71
$GNRMC,180627.00,A,2236.69664,S,04930.05671,W,0.002,,200323,,,D*69
$GPGSV,3,1,10,01,32,353,46,03,69,111,51,04,49,184,49,06,20,229,48*7C
$GLGSV,3,1,10,65,16,221,35,71,25,110,42,72,39,167,40,73,14,148,36*60
$GNGLL,2236.69664,S,04930.05671,W,180627.00,A,D*72
$GNRMC,180628.00,A,2236.69663,S,04930.05671,W,0.009,,200323,,,D*6A
$GPGSV,3,1,10,01,32,353,46,03,69,111,51,04,49,184,49,06,20,229,48*7C
$GLGSV,3,1,10,65,16,221,35,71,25,110,42,72,39,167,40,73,14,148,36*60
$GNGLL,2236.69663,S,04930.05671,W,180628.00,A,D*7A
$GNRMC,180629.00,A,2236.69662,S,04930.05670,W,0.002,,200323,,,D*60
$GPGSV,3,1,10,01,32,353,46,03,69,111,51,04,49,184,49,06,20,229,48*7C
$GLGSV,3,1,10,65,16,221,36,71,25,110,42,72,39,167,40,73,14,148,36*63
$GNGLL,2236.69662,S,04930.05670,W,180629.00,A,D*7B
$GNRMC,180630.00,A,2236.69660,S,04930.05671,W,0.010,,200323,,,D*68
$GPGSV,3,1,10,01,32,353,46,03,69,111,51,04,49,184,49,06,20,229,48*7C
$GLGSV,3,1,10,65,16,221,35,71,25,110,42,72,39,167,41,73,14,148,36*61
$GNGLL,2236.69660,S,04930.05671,W,180630.00,A,D*70
$GNRMC,180631.00,A,2236.69658,S,04930.05671,W,0.014,,200323,,,D*66
$GPGSV,3,1,10,01,32,353,46,03,69,111,51,04,49,184,49,06,20,229,48*7C
$GLGSV,3,1,10,65,16,221,36,71,25,110,42,72,39,167,41,73,14,148,36*62
$GNGLL,2236.69658,S,04930.05671,W,180631.00,A,D*7A
$GNRMC,180632.00,A,2236.69657,S,04930.05671,W,0.007,,200323,,,D*68
$GPGSV,3,1,11,01,32,353,46,03,69,111,51,04,49,184,49,06,20,229,48*7D
$GLGSV,3,1,10,65,16,221,36,71,25,110,42,72,39,167,40,73,14,148,36*63
$GNGLL,2236.69657,S,04930.05671,W,180632.00,A,D*76
$GNRMC,180633.00,A,2236.69655,S,04930.05671,W,0.007,,200323,,,D*6B
$GLGSV,3,2,10,74,54,116,40,75,48,014,41,76,00,345,22,86,10,343,32*62
$GNGLL,2236.69655,S,04930.05671,W,180633.00,A,D*75
$GNRMC,180634.00,A,2236.69654,S,04930.05671,W,0.010,,200323,,,D*6B
$GPGSV,3,2,11,07,40,314,48,09,37,232,50,16,29,087,47,21,10,010,43*7E
$GLGSV,3,1,10,65,16,221,35,71,25,110,41,72,39,167,40,73,14,148,36*63
$GNGLL,2236.69654,S,04930.05671,W,180634.00,A,D*73
$GNRMC,180635.00,A,2236.69653,S,04930.05671,W,0.012,,200323,,,D*6F
$GPGSV,3,2,11,07,40,314,48,09,37,232,50,16,29,087,47,21,10,010,44*79
$GLGSV,3,1,10,65,16,221,35,71,25,110,41,72,39,167,40,73,14,148,36*63
$GNGLL,2236.69653,S,04930.05671,W,180635.00,A,D*75
$GNRMC,180636.00,A,2236.69652,S,04930.05671,W,0.004,,200323,,,D*6A
$GPGSV,3,2,12,07,40,314,48,09,37,232,50,10,,,30,16,29,087,47*4B
$GLGSV,3,1,10,65,16,221,35,71,25,110,41,72,39,167,40,73,14,148,36*63
$GNGLL,2236.69652,S,04930.05671,W,180636.00,A,D*77
$GPGSV,3,3,11,26,17,123,45,36,00,087,,49,25,075,47*4B
$GLGSV,3,2,10,74,54,116,40,75,48,014,41,76,00,345,24,86,10,343,32*64
$GNGLL,2236.69651,S,04930.05672,W,180637.00,A,D*76
$GNRMC,180638.00,A,2236.69651,S,04930.05672,W,0.006,,200323,,,D*66
$GPGSV,3,1,11,01,32,353,47,03,69,111,51,04,49,184,49,06,20,229,47*73
$GLGSV,3,1,10,65,16,221,35,71,25,110,41,72,39,167,40,73,14,148,35*60
$GNGLL,2236.69651,S,04930.05672,W,180638.00,A,D*79
$GNGSA,A,3,74,73,65,88,87,71,86,75,72,,,,1.20,0.57,1.06*1E
$GPGSV,3,1,11,01,32,353,46,03,69,111,51,04,49,184,49,06,20,229,47*72
$GLGSV,3,1,10,65,16,221,35,71,25,109,41,72,39,167,40,73,14,148,36*6B
$GNGLL,2236.69650,S,04930.05672,W,180639.00,A,D*79
$GNRMC,180640.00,A,2236.69649,S,04930.05673,W,0.009,,200323,,,D*6E
$GPGSV,3,1,11,01,32,353,47,03,69,111,51,04,49,184,49,06,20,229,47*73
$GLGSV,3,1,10,65,16,221,35,71,25,109,41,72,39,167,40,73,14,148,36*6B
$GNGLL,2236.69649,S,04930.05673,W,180640.00,A,D*7E
$GNRMC,180641.00,A,2236.69648,S,04930.05674,W,0.016,,200323,,,D*67
$GPGSV,3,1,11,01,32,353,47,03,69,111,51,04,49,184,49,06,20,229,47*73
$GLGSV,3,1,10,65,16,221,35,71,25,109,41,72,39,167,40,73,14,148,35*68
$GNGLL,2236.69648,S,04930.05674,W,180641.00,A,D*79
$GNRMC,180642.00,A,2236.69647,S,04930.05675,W,0.003,,200323,,,D*6E
$GLGSV,3,1,10,65,16,221,35,71,25,109,41,72,39,167,41,73,14,148,35*69
$GNGLL,2236.69647,S,04930.05675,W,180642.00,A,D*74
$GNRMC,180643.00,A,2236.69646,S,04930.05675,W,0.013,,200323,,,D*6F
$GPGSV,3,1,11,01,32,353,46,03,69,111,51,04,49,184,49,06,20,229,47*72
$GNGSA,A,3,74,73,65,88,87,71,86,75,72,,,,1.20,0.57,1.06*1E
$GNGLL,2236.69644,S,04930.05675,W,180644.00,A,D*71
$GNRMC,180645.00,A,2236.69643,S,04930.05675,W,0.003,,200323,,,D*6D
$GPGSV,3,2,11,07,40,314,48,09,37,232,49,16,29,087,47,21,10,010,44*71
$GLGSV,3,1,10,65,16,221,34,71,25,109,41,72,39,167,41,73,14,148,35*68
$GNGLL,2236.69643,S,04930.05675,W,180645.00,A,D*77
$GNRMC,180646.00,A,2236.69644,S,04930.05675,W,0.015,,200323,,,D*6E
$GPGSV,3,2,11,07,40,314,49,09,37,232,49,16,29,087,47,21,10,010,44*70
$GLGSV,3,1,10,65,16,221,34,71,25,109,40,72,39,167,40,73,14,148,35*68
$GNGLL,2236.69644,S,04930.05675,W,180646.00,A,D*73
$GNRMC,180647.00,A,2236.69644,S,04930.05674,W,0.005,,200323,,,D*6F
$GPGSV,3,2,11,07,40,314,48,09,37,232,49,16,29,087,47,21,10,010,44*71
$GLGSV,3,3,10,87,27,288,38,88,16,236,37*63
$GNGLL,2236.69644,S,04930.05674,W,180647.00,A,D*73
$GNRMC,180648.00,A,2236.69644,S,04930.05673,W,0.018,,200323,,,D*6B
$GPGSV,3,3,11,26,17,123,45,36,00,087,,49,25,075,46*4A
$GLGSV,3,1,10,65,16,221,34,71,25,109,40,72,39,167,40,73,14,148,34*69
$GNGLL,2236.69644,S,04930.05673,W,180648.00,A,D*7B
$GNRMC,180649.00,A,2236.69644,S,04930.05672,W,0.003,,200323,,,D*61
$GPGSV,3,3,11,26,17,123,45,36,00,087,,49,25,075,46*4A
$GLGSV,3,1,10,65,16,221,34,71,25,109,40,72,39,167,40,73,14,148,34*69
$GNGLL,2236.69644,S,04930.05672,W,180649.00,A,D*7B
$GNRMC,180650.00,A,2236.69644,S,04930.05670,W,0.007,,200323,,,D*6F
$GPGSV,3,2,11,07,40,314,48,09,37,232,49,16,29,087,47,21,10,010,44*71
$GLGSV,3,1,10,65,16,221,34,71,25,109,40,72,39,167,40,73,14,148,34*69
$GNGLL,2236.69644,S,04930.05670,W,180650.00,A,D*71
$GNRMC,180651.00,A,2236.69643,S,04930.05669,W,0.009,,200323,,,D*6F
$GPGSV,3,2,11,07,40,314,48,09,37,232,49,16,29,087,47,21,10,010,44*71
$GLGSV,3,1,10,65,16,221,34,71,25,109,40,72,39,167,40,73,14,148,34*69
$GNGLL,2236.69643,S,04930.05669,W,180651.00,A,D*7F
$GNGSA,A,3,74,73,65,88,87,71,86,75,72,,,,1.20,0.57,1.05*1D
$GPGSV,3,2,11,07,40,314,48,09,37,232,49,16,29,087,47,21,10,010,44*71
$GLGSV,3,1,10,65,16,221,35,71,25,109,41,72,39,167,40,73,14,148,34*69
$GNGLL,2236.69643,S,04930.05668,W,180652.00,A,D*7D
$GNRMC,180653.00,A,2236.69641,S,04930.05668,W,0.009,,200323,,,D*6E
$GPGSV,3,2,11,07,40,314,48,09,37,232,49,16,29,087,47,21,10,010,44*71
$GLGSV,3,1,10,65,16,221,34,71,25,109,40,72,39,167,41,73,14,148,34*68
$GNGLL,2236.69641,S,04930.05668,W,180653.00,A,D*7E
$GNRMC,180654.00,A,2236.69640,S,04930.05667,W,0.005,,200323,,,D*6B
$GPGSV,3,2,11,07,40,314,48,09,37,232,49,16,29,087,47,21,10,010,44*71
$GLGSV,3,1,10,65,16,221,34,71,25,109,41,72,39,167,41,73,14,148,35*68
$GNGLL,2236.69640,S,04930.05667,W,180654.00,A,D*77
$GNRMC,180655.00,A,2236.69638,S,04930.05665,W,0.003,,200323,,,D*61
$GPGSV,3,2,11,07,40,314,48,09,37,232,49,16,29,087,47,21,10,010,44*71
$GNGLL,2236.69638,S,04930.05665,W,180655.00,A,D*7B
$GNRMC,180656.00,A,2236.69637,S,04930.05664,W,0.005,,200323,,,D*6A
$GPGSV,3,1,11,01,32,353,46,03,69,111,51,04,49,184,48,06,20,229,47*73
$GLGSV,3,1,10,65,16,221,34,71,25,109,41,72,39,167,41,73,14,148,34*69
$GNGLL,2236.69637,S,04930.05664,W,180656.00,A,D*76
$GNRMC,180657.00,A,2236.69636,S,04930.05663,W,0.002,,200323,,,D*6A
$GPGSV,3,2,11,07,40,314,48,09,37,232,49,16,29,087,46,21,10,010,44*70
$GLGSV,3,1,10,65,16,221,35,71,25,109,41,72,39,167,41,73,14,148,34*68
$GNGLL,2236.69636,S,04930.05663,W,180657.00,A,D*71
$GNRMC,180658.00,A,2236.69635,S,04930.05662,W,0.015,,200323,,,D*61
$GPGSV,3,2,11,07,40,314,48,09,37,232,49,16,29,087,46,21,10,010,43*77
$GLGSV,3,1,10,65,16,221,35,71,25,109,41,72,39,167,41,73,14,148,34*68
$GNGLL,2236.69635,S,04930.05662,W,180658.00,A,D*7C
$GNRMC,180659.00,A,2236.69634,S,04930.05661,W,0.005,,200323,,,D*63
$GPGSV,3,1,11,01,31,353,46,03,69,110,51,04,49,184,48,06,20,229,47*71
$GLGSV,3,1,10,65,16,221,35,71,25,109,42,72,39,167,41,73,14,148,35*6A
$GNGLL,2236.69634,S,04930.05661,W,180659.00,A,D*7F
$GNRMC,180700.00,A,2236.69634,S,04930.05660,W,0.002,,200323,,,D*68
$GPGSV,3,1,11,01,31,353,46,03,69,110,51,04,49,184,48,06,20,229,47*71
$GLGSV,3,1,10,65,16,221,35,71,25,109,42,72,39,167,41,73,14,148,35*6A
$GNGLL,2236.69634,S,04930.05660,W,180700.00,A,D*73
$GNRMC,180701.00,A,2236.69635,S,04930.05658,W,0.008,,200323,,,D*69
$GPGSV,3,1,11,01,31,353,47,03,69,110,51,04,49,184,48,06,21,230,47*79
$GLGSV,3,1,10,65,16,221,35,71,25,109,42,72,39,167,40,73,14,148,35*6B
$GNGLL,2236.69635,S,04930.05658,W,180701.00,A,D*78
$GNRMC,180702.00,A,2236.69635,S,04930.05657,W,0.005,,200323,,,D*68
$GPGSV,3,1,11,01,31,353,47,03,69,110,51,04,49,184,48,06,21,230,47*79
$GLGSV,3,1,10,65,16,221,35,71,25,109,42,72,39,167,41,73,14,148,35*6A
$GNGLL,2236.69635,S,04930.05657,W,180702.00,A,D*74
$GNRMC,180703.00,A,2236.69634,S,04930.05656,W,0.018,,200323,,,D*65
$GPGSV,3,1,11,01,31,353,46,03,69,110,51,04,49,184,48,06,21,230,47*78
$GLGSV,3,1,10,65,16,221,35,71,25,109,42,72,39,167,41,73,14,148,35*6A
$GNGLL,2236.69634,S,04930.05656,W,180703.00,A,D*75
$GNRMC,180704.00,A,2236.69635,S,04930.05654,W,0.009,,200323,,,D*61
$GPGSV,3,1,11,01,31,353,46,03,69,110,51,04,49,184,48,06,21,230,47*78
$GLGSV,3,1,10,65,16,221,35,71,25,109,42,72,39,167,40,73,14,148,35*6B
$GNGLL,2236.69635,S,04930.05654,W,180704.00,A,D*71
$GNRMC,180705.00,A,2236.69636,S,04930.05654,W,0.008,,200323,,,D*62
$GPGSV,3,2,11,07,40,314,48,09,37,231,49,16,29,088,46,21,10,010,42*7A
$GLGSV,3,1,10,65,16,221,35,71,25,109,42,72,39,167,40,73,14,148,35*6B
$GNGLL,2236.69636,S,04930.05654,W,180705.00,A,D*73
$GNRMC,180706.00,A,2236.69636,S,04930.05654,W,0.016,,200323,,,D*6E
$GPGSV,3,2,11,07,40,314,48,09,37,231,49,16,29,088,47,21,10,010,42*7B
$GLGSV,3,1,10,65,16,221,35,71,25,109,42,72,39,167,41,73,14,148,34*6B
$GNGLL,2236.69636,S,04930.05654,W,180706.00,A,D*70
$GNRMC,180707.00,A,2236.69635,S,04930.05653,W,0.012,,200323,,,D*6F
$GPGSV,3,2,11,07,40,314,48,09,37,231,49,16,29,088,47,21,10,010,42*7B
$GLGSV,3,1,10,65,16,221,34,71,25,109,42,72,39,167,41,73,14,148,34*6A
$GNGLL,2236.69635,S,04930.05653,W,180707.00,A,D*75
$GNRMC,180708.00,A,2236.69635,S,04930.05654,W,0.006,,200323,,,D*62
$GPGSV,3,1,11,01,31,353,46,03,69,110,50,04,49,184,49,06,21,230,47*78
$GLGSV,3,1,10,65,16,221,34,71,25,109,42,72,39,167,40,73,14,148,35*6A
$GNGLL,2236.69635,S,04930.05654,W,180708.00,A,D*7D
$GNRMC,180709.00,A,2236.69634,S,04930.05655,W,0.008,,200323,,,D*6D
$GPGSV,3,1,11,01,31,353,46,03,69,110,50,04,49,184,48,06,21,230,47*79
$GLGSV,3,1,10,65,16,221,34,71,25,109,42,72,39,167,41,73,14,148,35*6B
$GNGLL,2236.69634,S,04930.05655,W,180709.00,A,D*7C
$GNRMC,180710.00,A,2236.69633,S,04930.05655,W,0.013,,200323,,,D*68
$GPGSV,3,1,11,01,31,353,46,03,69,110,50,04,49,184,48,06,21,230,47*79
$GLGSV,3,1,10,65,16,221,35,71,25,109,42,72,39,167,41,73,14,148,34*6B
$GNGLL,2236.69633,S,04930.05655,W,180710.00,A,D*73
$GNRMC,180711.00,A,2236.69632,S,04930.05655,W,0.013,,200323,,,D*68
$GPGSV,3,1,11,01,31,353,46,03,69,110,50,04,49,184,48,06,21,230,47*79
$GLGSV,3,1,10,65,16,221,34,71,25,109,42,72,39,167,41,73,14,148,34*6A
$GNGLL,2236.69632,S,04930.05655,W,180711.00,A,D*73
$GNRMC,180712.00,A,2236.69631,S,04930.05657,W,0.012,,200323,,,D*6B
$GPGSV,3,1,11,01,31,353,46,03,69,110,50,04,49,184,48,06,21,230,47*79
$GLGSV,3,1,10,65,16,221,34,71,25,109,42,72,39,167,41,73,14,148,34*6A
$GNGLL,2236.69631,S,04930.05657,W,180712.00,A,D*71
$GNRMC,180713.00,A,2236.69629,S,04930.05658,W,0.015,,200323,,,D*6B
$GPGSV,3,1,11,01,31,353,46,03,69,110,51,04,49,184,48,06,21,230,47*78
$GLGSV,3,1,10,65,16,221,35,71,25,109,42,72,39,167,40,73,14,148,34*6A
$GNGLL,2236.69629,S,04930.05658,W,180713.00,A,D*76
$GNRMC,180714.00,A,2236.69628,S,04930.05659,W,0.004,,200323,,,D*6C
$GPGSV,3,1,11,01,31,353,46,03,69,110,51,04,49,184,48,06,21,230,47*78
$GLGSV,3,1,10,65,16,221,34,71,25,109,42,72,39,167,41,73,14,148,34*6A
$GNGLL,2236.69628,S,04930.05659,W,180714.00,A,D*71
$GNRMC,180715.00,A,2236.69626,S,04930.05660,W,0.006,,200323,,,D*6B
$GPGSV,3,2,11,07,40,314,47,09,37,231,49,16,29,088,47,21,10,010,41*77
$GLGSV,3,1,10,65,16,221,34,71,25,109,42,72,39,167,40,73,14,148,35*6A
$GNGLL,2236.69626,S,04930.05660,W,180715.00,A,D*74
$GNRMC,180716.00,A,2236.69625,S,04930.05660,W,0.006,,200323,,,D*6B
$GPGSV,3,2,11,07,40,314,48,09,37,231,48,16,29,088,47,21,10,010,41*79
$GLGSV,3,1,10,65,16,221,34,71,25,109,42,72,39,167,40,73,14,148,34*6B
$GNGLL,2236.69625,S,04930.05660,W,180716.00,A,D*74
$GNRMC,180717.00,A,2236.69623,S,04930.05661,W,0.004,,200323,,,D*6F
$GPGSV,3,1,11,01,31,353,46,03,69,110,51,04,49,184,48,06,21,230,47*78
$GLGSV,3,1,10,65,16,221,34,71,25,109,42,72,39,167,41,73,14,148,35*6B
$GNGLL,2236.69623,S,04930.05661,W,180717.00,A,D*72
$GNRMC,180718.00,A,2236.69621,S,04930.05662,W,0.006,,200323,,,D*63
$GPGSV,3,1,11,01,31,353,46,03,69,110,51,04,49,184,49,06,21,230,47*79
$GLGSV,3,1,10,65,16,221,35,71,25,109,42,72,39,167,41,73,14,148,35*6A
$GNGLL,2236.69621,S,04930.05662,W,180718.00,A,D*7C
$GNRMC,180719.00,A,2236.69619,S,04930.05662,W,0.004,,200323,,,D*6B
$GPGSV,3,1,11,01,31,353,46,03,69,110,51,04,49,184,49,06,21,230,47*79
$GLGSV,3,1,10,65,16,221,34,71,25,109,42,72,39,167,41,73,14,148,34*6A
$GNGLL,2236.69619,S,04930.05662,W,180719.00,A,D*76
$GNRMC,180720.00,A,2236.69618,S,04930.05662,W,0.007,,200323,,,D*63
$GPGSV,3,1,11,01,31,353,46,03,69,110,51,04,49,184,49,06,21,230,47*79
$GLGSV,3,1,10,65,16,221,34,71,25,109,42,72,39,167,40,73,14,148,34*6B
$GNGLL,2236.69618,S,04930.05662,W,180720.00,A,D*7D
$GNRMC,180721.00,A,2236.69617,S,04930.05661,W,0.006,,200323,,,D*6F
$GPGSV,3,1,11,01,31,353,46,03,69,110,51,04,49,184,49,06,21,230,47*79
$GLGSV,3,1,10,65,16,221,33,71,25,109,42,72,39,167,40,73,14,148,35*6D
$GNGLL,2236.69617,S,04930.05661,W,180721.00,A,D*70
$GNRMC,180722.00,A,2236.69616,S,04930.05661,W,0.005,,200323,,,D*6E
$GPGSV,3,1,11,01,31,353,46,03,69,110,51,04,49,184,48,06,21,230,47*78
$GLGSV,3,1,10,65,16,221,33,71,25,109,42,72,39,167,40,73,14,148,34*6C
$GNGLL,2236.69616,S,04930.05661,W,180722.00,A,D*72
$GNRMC,180723.00,A,2236.69614,S,04930.05661,W,0.002,,200323,,,D*6A
$GPGSV,3,1,11,01,31,353,46,03,69,110,51,04,49,184,48,06,21,230,47*78
$GLGSV,3,1,10,65,16,221,34,71,25,109,42,72,39,167,41,73,14,148,34*6A
$GNGLL,2236.69614,S,04930.05661,W,180723.00,A,D*71
$GNGSA,A,3,74,73,65,88,87,71,86,75,72,,,,1.19,0.57,1.05*17
$GPGSV,3,1,11,01,31,353,46,03,69,110,51,04,49,184,48,06,21,230,47*78
$GLGSV,3,1,10,65,16,221,34,71,25,109,42,72,39,167,41,73,14,148,34*6A
$GNGLL,2236.69613,S,04930.05661,W,180724.00,A,D*71
$GNRMC,180725.00,A,2236.69612,S,04930.05660,W,0.001,,200323,,,D*68
$GPGSV,3,1,11,01,31,353,46,03,69,110,51,04,49,184,48,06,21,230,47*78
$GLGSV,3,1,10,65,16,221,34,71,25,109,42,72,39,167,41,73,14,148,34*6A
$GNGLL,2236.69612,S,04930.05660,W,180725.00,A,D*70
$GNRMC,180726.00,A,2236.69611,S,04930.05660,W,0.007,,200323,,,D*6E
$GPGSV,3,1,11,01,31,353,46,03,69,110,51,04,49,184,48,06,21,230,47*78
$GLGSV,3,1,10,65,16,221,33,71,25,109,42,72,39,167,41,73,14,148,34*6D
$GNGLL,2236.69611,S,04930.05660,W,180726.00,A,D*70
$GNRMC,180727.00,A,2236.69609,S,04930.05660,W,0.008,,200323,,,D*69
$GPGSV,3,1,11,01,31,353,46,03,69,110,51,04,49,184,48,06,21,230,47*78
$GLGSV,3,1,10,65,16,221,33,71,25,109,42,72,39,167,41,73,14,148,35*6C
$GNGLL,2236.69609,S,04930.05660,W,180727.00,A,D*78
$GNRMC,180728.00,A,2236.69608,S,04930.05660,W,0.011,,200323,,,D*6F
$GPGSV,3,1,11,01,31,353,46,03,69,110,51,04,49,184,48,06,21,230,47*78
$GLGSV,3,1,10,65,16,221,33,71,25,109,43,72,39,167,41,73,14,148,35*6D
$GNGLL,2236.69608,S,04930.05660,W,180728.00,A,D*76
$GNRMC,180729.00,A,2236.69607,S,04930.05660,W,0.002,,200323,,,D*63
$GPGSV,3,1,11,01,31,353,46,03,69,110,51,04,49,184,48,06,21,230,46*79
$GLGSV,3,1,10,65,16,221,33,71,25,109,43,72,39,167,41,73,14,148,34*6C
$GNGLL,2236.69607,S,04930.05660,W,180729.00,A,D*78
$GNRMC,180730.00,A,2236.69607,S,04930.05660,W,0.006,,200323,,,D*6F
$GPGSV,3,2,11,07,40,314,48,09,37,231,49,16,29,088,47,21,10,010,41*78
$GLGSV,3,1,10,65,16,221,34,71,25,109,43,72,39,167,41,73,14,148,34*6B
$GNGLL,2236.69607,S,04930.05660,W,180730.00,A,D*70
$GNRMC,180731.00,A,2236.69607,S,04930.05659,W,0.029,,200323,,,D*69
$GPGSV,3,1,11,01,31,353,46,03,69,110,51,04,49,184,48,06,21,230,46*79
$GLGSV,3,1,10,65,16,221,34,71,25,109,42,72,39,167,41,73,14,148,33*6D
$GNGLL,2236.69607,S,04930.05659,W,180731.00,A,D*7B
$GNRMC,180732.00,A,2236.69607,S,04930.05657,W,0.003,,200323,,,D*6C
$GPGSV,3,2,11,07,40,314,48,09,37,231,49,16,29,088,47,21,10,010,41*78
$GLGSV,3,1,10,65,16,221,34,71,25,109,42,72,39,167,41,73,14,148,33*6D
$GNGLL,2236.69607,S,04930.05657,W,180732.00,A,D*76
$GNRMC,180733.00,A,2236.69607,S,04930.05656,W,0.017,,200323,,,D*69
$GPGSV,3,1,11,01,31,353,46,03,69,110,51,04,49,184,48,06,21,230,46*79
$GLGSV,3,1,10,65,16,221,34,71,25,109,42,72,39,167,41,73,14,148,33*6D
$GNGLL,2236.69607,S,04930.05656,W,180733.00,A,D*76
$GNRMC,180734.00,A,2236.69606,S,04930.05656,W,0.007,,200323,,,D*6E
$GPGSV,3,1,11,01,31,353,46,03,69,110,51,04,49,184,49,06,21,230,47*79
$GLGSV,3,1,10,65,16,221,34,71,25,109,43,72,39,166,41,73,14,148,33*6D
$GNGLL,2236.69606,S,04930.05656,W,180734.00,A,D*70
$GNRMC,180735.00,A,2236.69606,S,04930.05655,W,0.021,,200323,,,D*68
$GPGSV,3,1,11,01,31,353,46,03,69,110,51,04,49,184,49,06,21,230,47*79
$GLGSV,3,1,10,65,16,221,34,71,25,109,42,72,39,166,41,73,14,148,33*6C
$GNGLL,2236.69606,S,04930.05655,W,180735.00,A,D*72
$GNRMC,180736.00,A,2236.69606,S,04930.05655,W,0.013,,200323,,,D*6A
$GPGSV,3,1,11,01,31,353,46,03,69,110,51,04,49,184,49,06,21,230,47*79
$GLGSV,3,1,10,65,16,221,34,71,25,109,42,72,39,166,41,73,14,148,33*6C
$GNGLL,2236.69606,S,04930.05655,W,180736.00,A,D*71
$GNRMC,180737.00,A,2236.69606,S,04930.05654,W,0.007,,200323,,,D*6F
$GPGSV,3,1,11,01,31,353,46,03,69,110,51,04,49,184,49,06,21,230,47*79
$GLGSV,3,1,10,65,16,221,34,71,25,109,43,72,39,166,41,73,14,148,33*6D
$GNGLL,2236.69606,S,04930.05654,W,180737.00,A,D*71
$GNRMC,180738.00,A,2236.69607,S,04930.05653,W,0.008,,200323,,,D*69
$GPGSV,3,1,11,01,31,353,45,03,69,110,51,04,49,184,49,06,21,230,47*7A
$GLGSV,3,1,10,65,16,221,34,71,25,109,43,72,39,166,40,73,14,148,33*6C
$GNGLL,2236.69607,S,04930.05653,W,180738.00,A,D*78
$GNRMC,180739.00,A,2236.69595,S,04930.05637,W,0.971,50.13,200323,,,D*4C
$GPGSV,3,1,11,01,31,353,46,03,69,110,51,04,49,184,49,06,21,230,47*79
$GLGSV,3,1,10,65,16,221,34,71,25,109,42,72,39,166,41,73,14,148,33*6C
$GNGLL,2236.69595,S,04930.05637,W,180739.00,A,D*73
$GNRMC,180740.00,A,2236.69568,S,04930.05594,W,2.137,53.01,200323,,,D*42
$GPGSV,3,1,11,01,31,353,47,03,69,110,52,04,49,184,48,06,21,230,47*7A
$GLGSV,3,1,10,65,16,221,35,71,25,109,41,72,39,166,38,73,14,148,32*61
$GNGLL,2236.69568,S,04930.05594,W,180740.00,A,D*75
$GNRMC,180741.00,A,2236.69541,S,04930.05550,W,1.686,54.23,200323,,,D*49
$GPGSV,3,2,11,07,40,314,48,09,37,231,48,16,29,088,46,21,10,010,46*7F
$GLGSV,3,1,10,65,16,221,35,71,25,109,41,72,39,166,38,73,14,148,33*60
$GNGLL,2236.69541,S,04930.05550,W,180741.00,A,D*77
$GNRMC,180742.00,A,2236.69532,S,04930.05492,W,2.212,78.66,200323,,,D*44
$GLGSV,3,2,10,74,54,117,39,75,48,014,41,76,00,345,29,86,09,344,28*62
$GNGLL,2236.69532,S,04930.05492,W,180742.00,A,D*7F
$GNRMC,180743.00,A,2236.69518,S,04930.05428,W,2.287,74.54,200323,,,D*4D
$GPGSV,3,1,11,01,31,353,47,03,69,110,51,04,49,184,48,06,21,230,47*79
$GLGSV,3,1,10,65,16,221,36,71,25,109,41,72,39,166,38,73,14,148,37*67
$GNGLL,2236.69518,S,04930.05428,W,180743.00,A,D*77
$GNRMC,180744.00,A,2236.69491,S,04930.05369,W,2.240,66.05,200323,,,D*44
$GNGLL,2236.69491,S,04930.05369,W,180744.00,A,D*72
$GNRMC,180745.00,A,2236.69473,S,04930.05306,W,2.264,74.89,200323,,,D*41
$GPGSV,3,2,11,07,40,314,48,09,37,231,50,16,29,088,47,21,10,010,41*70
$GLGSV,3,1,10,65,16,221,31,71,25,109,41,72,39,166,41,73,14,148,38*61
$GNGLL,2236.69473,S,04930.05306,W,180745.00,A,D*76
$GNRMC,180746.00,A,2236.69468,S,04930.05239,W,2.335,86.32,200323,,,D*4D
$GPGSV,3,3,11,26,16,123,46,36,00,087,,49,25,075,47*49
$GLGSV,3,1,10,65,16,221,31,71,25,109,41,72,39,166,42,73,14,148,38*62
$GNGLL,2236.69468,S,04930.05239,W,180746.00,A,D*72
$GNRMC,180747.00,A,2236.69476,S,04930.05181,W,1.852,94.68,200323,,,D*46
$GPGSV,3,2,11,07,40,314,48,09,37,231,47,16,29,088,47,21,10,010,37*77
$GLGSV,3,1,10,65,16,221,28,71,25,109,42,72,39,166,40,73,14,148,41*65
$GNGLL,2236.69476,S,04930.05181,W,180747.00,A,D*7C
$GNGSA,A,3,74,73,65,88,87,71,86,75,72,,,,1.19,0.57,1.05*1720/03/23 15:07:48 - $X7TELA,L,-1,,,,,,,*2B
$GPGSV,3,1,11,01,31,353,45,03,69,110,50,04,49,184,48,06,21,230,46*7B
$GLGSV,3,2,10,74,54,117,38,75,48,014,41,76,00,345,22,86,09,344,39*68
$GNGLL,2236.69500,S,04930.05122,W,180748.00,A,D*7A
$GNRMC,180749.00,A,2236.69545,S,04930.05071,W,2.531,131.27,200323,,,D*79
$GLGSV,3,1,10,65,16,221,35,71,25,109,41,72,39,166,42,73,14,148,39*67
$GNGLL,2236.69545,S,04930.05071,W,180749.00,A,D*7D
$GNRMC,180750.00,A,2236.69600,S,04930.05033,W,2.404,143.77,200323,,,D*72
$GPGSV,3,2,11,07,40,314,50,09,37,231,49,16,29,088,47,21,10,010,41*71
$GLGSV,3,1,10,65,16,221,35,71,25,109,39,72,39,166,41,73,14,148,39*6B
$GNGLL,2236.69600,S,04930.05033,W,180750.00,A,D*71
$GNRMC,180751.00,A,2236.69659,S,04930.05019,W,2.385,161.87,200323,,,D*76
$GPGSV,3,2,11,07,40,314,51,09,37,231,47,16,29,088,45,21,10,010,41*7C
$GLGSV,3,1,10,65,16,221,36,71,25,109,38,72,39,166,43,73,14,148,39*6B
$GNGLL,2236.69659,S,04930.05019,W,180751.00,A,D*74
$GNRMC,180752.00,A,2236.69723,S,04930.05023,W,2.337,175.96,200323,,,D*7C
$GPGSV,3,2,11,07,40,314,49,09,37,231,49,16,29,088,45,21,10,010,44*7E
$GLGSV,3,1,10,65,16,221,39,71,25,109,36,72,39,166,41,73,14,148,35*64
$GNGLL,2236.69723,S,04930.05023,W,180752.00,A,D*72
$GNRMC,180753.00,A,2236.69787,S,04930.05049,W,2.660,195.67,200323,,,D*78
$GPGSV,3,2,11,07,40,314,50,09,37,231,49,16,29,088,45,21,10,010,40*72
$GLGSV,3,1,10,65,16,221,37,71,25,109,38,72,39,166,41,73,14,148,36*67
$GNGLL,2236.69787,S,04930.05049,W,180753.00,A,D*71
$GNRMC,180754.00,A,2236.69847,S,04930.05097,W,2.644,212.73,200323,,,D*70
$GLGSV,3,1,10,65,16,221,37,71,25,109,39,72,39,166,36,73,14,148,30*60
$GNGLL,2236.69847,S,04930.05097,W,180754.00,A,D*76
$GNRMC,180755.00,A,2236.69889,S,04930.05156,W,2.457,226.46,200323,,,D*7E
$GPGSV,3,2,12,07,40,314,50,09,37,231,48,16,29,088,45,21,10,010,41*71
$GLGSV,3,1,10,65,16,221,36,71,25,109,39,72,39,166,40,73,14,148,36*66
$GNGLL,2236.69889,S,04930.05156,W,180755.00,A,D*79
$GNRMC,180756.00,A,2236.69912,S,04930.05219,W,2.185,242.16,200323,,,D*7B
$GPGSV,3,2,12,07,40,314,50,09,37,231,47,16,29,088,47,21,10,010,41*7C
$GLGSV,3,1,10,65,16,221,36,71,25,109,41,72,39,166,36,73,14,148,36*68
$GNGLL,2236.69912,S,04930.05219,W,180756.00,A,D*71
$GPGSV,3,1,12,01,31,353,48,03,69,108,51,04,49,183,47,06,21,230,46*75
$GLGSV,3,1,10,65,16,221,30,71,25,109,43,72,39,166,40,73,14,148,36*6D
$GNGLL,2236.69919,S,04930.05292,W,180757.00,A,D*78
$GNRMC,180758.00,A,2236.69929,S,04930.05368,W,2.606,259.42,200323,,,D*7D
$GPGSV,3,2,12,07,41,313,51,09,37,231,48,16,29,088,47,21,10,010,40*75
$GLGSV,3,1,10,65,16,221,30,71,25,109,42,72,39,166,39,73,14,148,35*61
$GNGLL,2236.69929,S,04930.05368,W,180758.00,A,D*70
$GNRMC,180759.00,A,2236.69947,S,04930.05444,W,2.539,256.15,200323,,,D*7F
$GNGLL,2236.69947,S,04930.05444,W,180759.00,A,D*70
$GNRMC,180800.00,A,2236.69965,S,04930.05503,W,1.837,254.56,200323,,,D*7B
$GPGSV,3,2,12,07,41,313,50,09,37,231,48,16,29,088,47,21,09,010,42*7E
$GLGSV,3,1,10,65,16,221,34,71,25,109,40,72,39,166,36,73,14,148,36*6B
$GNGLL,2236.69965,S,04930.05503,W,180800.00,A,D*71
$GNRMC,180801.00,A,2236.69976,S,04930.05537,W,0.941,253.90,200323,,,D*73
$GPGSV,3,2,12,07,41,313,50,09,37,231,48,16,29,088,48,21,09,010,41*72
$GLGSV,3,1,10,65,16,221,36,71,25,109,40,72,39,166,39,73,14,148,36*66
$GNGLL,2236.69976,S,04930.05537,W,180801.00,A,D*75
$GNRMC,180802.00,A,2236.69987,S,04930.05571,W,1.280,252.95,200323,,,D*7F
$GPGSV,3,2,12,07,41,313,49,09,37,231,48,16,29,088,48,21,09,010,41*7A
$GLGSV,3,1,10,65,16,221,36,71,25,109,38,72,39,166,40,73,14,148,36*67
$GNGLL,2236.69987,S,04930.05571,W,180802.00,A,D*7A
$GNGSA,A,3,74,73,65,88,87,71,86,75,72,,,,1.19,0.57,1.05*17
$GPGSV,3,1,12,01,31,353,47,03,69,108,51,04,49,183,47,06,21,230,47*7B
$GLGSV,3,1,10,65,16,221,37,71,25,109,38,72,39,166,40,73,14,148,36*66
$GNGLL,2236.70001,S,04930.05622,W,180803.00,A,D*71
$GNRMC,180804.00,A,2236.70025,S,04930.05692,W,2.727,251.02,200323,,,D*78
$GLGSV,3,2,10,74,54,117,37,75,48,014,39,76,00,345,32,86,09,344,38*68
$GNGLL,2236.70025,S,04930.05692,W,180804.00,A,D*7B
$GNRMC,180805.00,A,2236.70053,S,04930.05770,W,2.854,250.27,200323,,,D*78
$GPGSV,3,2,12,07,41,313,51,09,37,231,48,16,29,088,45,21,09,010,44*7B
$GLGSV,3,1,10,65,16,221,38,71,25,109,38,72,39,166,38,73,14,148,34*64
$GNGLL,2236.70053,S,04930.05770,W,180805.00,A,D*76
$GNRMC,180806.00,A,2236.70091,S,04930.05846,W,2.886,243.02,200323,,,D*75
$GPGSV,3,2,12,07,41,313,50,09,37,231,49,16,29,088,45,21,09,010,44*7B
$GLGSV,3,1,10,65,16,221,33,71,25,109,41,72,39,166,38,73,14,148,33*66
$GNGLL,2236.70091,S,04930.05846,W,180806.00,A,D*71
$GNRMC,180807.00,A,2236.70136,S,04930.05911,W,2.620,236.47,200323,,,D*7A
$GPGSV,3,2,12,07,41,313,50,09,37,231,47,16,29,088,43,21,09,010,44*73
$GLGSV,3,1,10,65,16,221,34,71,25,109,41,72,39,166,39,73,14,148,32*61
$GNGLL,2236.70136,S,04930.05911,W,180807.00,A,D*7F
$GNRMC,180808.00,A,2236.70181,S,04930.05974,W,2.676,235.48,200323,,,D*75
$GPGSV,3,2,12,07,41,313,47,09,37,231,48,16,29,088,46,21,09,010,44*7F
$GLGSV,3,1,10,65,16,221,35,71,25,109,39,72,39,166,41,73,14,148,35*67
$GNGLL,2236.70181,S,04930.05974,W,180808.00,A,D*7F
$GPGSV,3,3,12,26,16,123,42,30,,,43,36,00,087,,49,25,075,47*4A
$GLGSV,3,1,10,65,16,221,35,71,25,109,37,72,39,166,41,73,14,148,35*69
$GNGLL,2236.70221,S,04930.06052,W,180809.00,A,D*79
$GNRMC,180810.00,A,2236.70247,S,04930.06133,W,2.834,251.40,200323,,,D*7F
$GNGLL,2236.70247,S,04930.06133,W,180810.00,A,D*77
$GNRMC,180811.00,A,2236.70273,S,04930.06201,W,2.287,248.47,200323,,,D*76
$GPGSV,3,2,12,07,41,313,49,09,37,231,47,16,29,088,45,21,09,010,45*7C
$GLGSV,3,1,10,65,16,221,36,71,25,109,41,72,39,166,38,73,14,148,32*62
$GNGLL,2236.70273,S,04930.06201,W,180811.00,A,D*73
$GNRMC,180812.00,A,2236.70313,S,04930.06255,W,2.334,235.66,200323,,,D*73
$GPGSV,3,1,12,01,31,353,47,03,69,108,49,04,49,183,46,06,21,230,48*7C
$GLGSV,3,1,10,65,16,221,35,71,25,109,41,72,39,166,38,73,14,148,33*60
$GNGLL,2236.70313,S,04930.06255,W,180812.00,A,D*76
$GNRMC,180813.00,A,2236.70350,S,04930.06331,W,3.119,245.89,200323,,,D*7C
$GPGSV,3,2,12,07,41,313,50,09,37,231,48,16,29,088,44,21,09,010,46*79
$GLGSV,3,1,10,65,16,221,34,71,25,109,43,72,39,166,39,73,14,148,37*66
$GNGLL,2236.70350,S,04930.06331,W,180813.00,A,D*73
$GNRMC,180814.00,A,2236.70379,S,04930.06419,W,3.126,250.04,200323,,,D*70
$GPGSV,4,2,13,07,41,313,50,09,37,231,48,16,29,088,45,21,09,010,46*7E
$GLGSV,3,1,10,65,16,221,35,71,25,109,40,72,39,166,39,73,14,148,35*66
$GNGLL,2236.70379,S,04930.06419,W,180814.00,A,D*72
$GNRMC,180815.00,A,2236.70414,S,04930.06499,W,2.892,245.89,200323,,,D*73
$GPGSV,4,1,13,01,31,353,47,03,69,108,51,04,49,183,48,06,21,230,46*73
$GLGSV,3,1,10,65,16,221,36,71,25,109,40,72,39,166,39,73,14,148,34*64
$GNGLL,2236.70414,S,04930.06499,W,180815.00,A,D*77
$GNRMC,180816.00,A,2236.70452,S,04930.06575,W,2.863,243.77,200323,,,D*78
$GPGSV,4,1,13,01,31,353,47,03,69,108,51,04,49,183,48,06,21,230,47*72
$GLGSV,3,1,10,65,16,221,35,71,25,109,41,72,39,166,39,73,14,148,33*61
$GNGLL,2236.70452,S,04930.06575,W,180816.00,A,D*75
$GPGSV,4,2,13,07,41,313,48,09,37,231,48,16,29,088,46,21,09,010,44*76
$GLGSV,3,1,10,65,16,221,35,71,25,109,40,72,39,166,39,73,14,148,34*67
$GNGLL,2236.70491,S,04930.06645,W,180817.00,A,D*7B
$GNRMC,180818.00,A,2236.70526,S,04930.06721,W,2.835,244.74,200323,,,D*70
$GPGSV,4,1,13,01,31,353,48,03,69,108,51,04,49,183,48,06,21,230,46*7C
$GLGSV,3,1,10,65,16,221,35,71,25,109,41,72,39,166,39,73,14,148,34*66
$GNGLL,2236.70526,S,04930.06721,W,180818.00,A,D*7A
$GNRMC,180819.00,A,2236.70560,S,04930.06797,W,2.799,243.78,200323,,,D*7C
$GPGSV,4,1,13,01,31,353,48,03,69,108,51,04,49,183,48,06,21,230,47*7D
$GLGSV,3,1,10,65,16,221,35,71,25,109,42,72,39,166,41,73,14,148,34*6A
$GNGLL,2236.70560,S,04930.06797,W,180819.00,A,D*74
$GNRMC,180820.00,A,2236.70598,S,04930.06872,W,2.840,243.39,200323,,,D*7B
$GPGSV,4,1,13,01,31,353,48,03,69,108,51,04,49,183,48,06,21,230,47*7D
$GLGSV,3,1,10,65,16,221,35,71,25,109,42,72,39,166,41,73,14,148,35*6B
$GNGLL,2236.70598,S,04930.06872,W,180820.00,A,D*7D
$GNRMC,180821.00,A,2236.70637,S,04930.06948,W,2.903,242.66,200323,,,D*79
$GPGSV,4,1,13,01,31,353,48,03,69,108,51,04,49,183,48,06,21,230,47*7D
$GLGSV,3,1,10,65,16,221,35,71,25,109,43,72,39,166,40,73,14,148,35*6B
$GNGLL,2236.70637,S,04930.06948,W,180821.00,A,D*72
$GNRMC,180822.00,A,2236.70678,S,04930.07024,W,2.876,242.39,200323,,,D*7A
$GPGSV,4,4,13,49,25,075,47*40
$GLGSV,3,1,10,65,17,220,35,71,25,109,42,72,39,166,39,73,14,148,35*64
$GNGLL,2236.70678,S,04930.07024,W,180822.00,A,D*78
$GNRMC,180823.00,A,2236.70718,S,04930.07097,W,2.763,241.21,200323,,,D*75
$GPGSV,4,1,13,01,31,353,49,03,69,108,52,04,49,183,48,06,21,230,46*7E
$GLGSV,3,1,10,65,17,220,35,71,25,109,44,72,39,166,39,73,14,148,35*62
$GNGLL,2236.70718,S,04930.07097,W,180823.00,A,D*76
$GNRMC,180824.00,A,2236.70756,S,04930.07173,W,2.816,242.33,200323,,,D*7E
$GPGSV,4,1,13,01,31,353,48,03,69,108,52,04,49,183,48,06,21,230,46*7F
$GLGSV,3,1,10,65,17,220,35,71,25,109,43,72,39,166,39,73,14,148,36*66
$GNGLL,2236.70756,S,04930.07173,W,180824.00,A,D*70
$GNRMC,180825.00,A,2236.70798,S,04930.07245,W,2.817,239.70,200323,,,D*71
$GPGSV,4,1,13,01,31,353,48,03,69,108,51,04,49,183,48,06,21,230,47*7D
$GLGSV,3,1,10,65,17,220,36,71,25,109,43,72,39,166,40,73,14,148,36*6B
$GNGLL,2236.70798,S,04930.07245,W,180825.00,A,D*75
$GNRMC,180826.00,A,2236.70838,S,04930.07319,W,2.844,242.07,200323,,,D*75
$GPGSV,4,1,13,01,31,353,49,03,69,108,51,04,49,183,47,06,21,230,47*73
$GLGSV,3,1,10,65,17,220,36,71,25,109,43,72,39,166,39,73,14,148,36*65
$GNGLL,2236.70838,S,04930.07319,W,180826.00,A,D*7B
$GNRMC,180827.00,A,2236.70873,S,04930.07394,W,2.782,243.93,200323,,,D*77
$GPGSV,4,2,13,07,41,313,49,09,37,231,49,16,29,088,46,21,09,010,44*76
$GLGSV,3,1,10,65,17,220,36,71,25,109,41,72,39,166,39,73,14,148,35*64
$GNGLL,2236.70873,S,04930.07394,W,180827.00,A,D*70
$GNRMC,180828.00,A,2236.70906,S,04930.07467,W,2.665,245.42,200323,,,D*72
$GPGSV,4,1,13,01,31,353,48,03,69,108,51,04,49,183,48,06,21,230,49*73
$GLGSV,3,1,10,65,17,220,36,71,24,108,42,72,39,166,40,73,14,148,37*6B
$GNGLL,2236.70906,S,04930.07467,W,180828.00,A,D*77
$GNRMC,180829.00,A,2236.70946,S,04930.07536,W,2.801,240.39,200323,,,D*77
$GPGSV,4,1,13,01,31,353,47,03,69,108,51,04,49,183,48,06,21,230,49*7C
$GLGSV,3,1,10,65,17,220,36,71,24,108,40,72,40,165,40,73,14,148,36*65
$GNGLL,2236.70946,S,04930.07536,W,180829.00,A,D*77
$GNRMC,180830.00,A,2236.70989,S,04930.07610,W,2.999,240.83,200323,,,D*7A
$GPGSV,4,2,13,07,41,313,49,09,37,231,49,16,29,088,46,21,09,010,44*76
$GLGSV,3,1,10,65,17,220,36,71,24,108,40,72,40,165,40,73,13,148,36*62
$GNGLL,2236.70989,S,04930.07610,W,180830.00,A,D*7B
$GNRMC,180831.00,A,2236.71029,S,04930.07688,W,2.968,242.56,200323,,,D*7C
$GPGSV,4,1,13,01,31,353,49,03,69,108,51,04,49,183,48,06,21,230,47*7C
$GLGSV,3,1,10,65,17,220,36,71,24,108,41,72,40,165,39,73,13,148,35*6E
$GNGLL,2236.71029,S,04930.07688,W,180831.00,A,D*79
$GNGSA,A,3,74,73,65,88,87,71,86,75,72,,,,1.14,0.55,1.00*1D
$GPGSV,4,1,13,01,31,353,49,03,69,108,52,04,49,183,48,06,21,230,47*7F
$GLGSV,3,1,10,65,17,220,36,71,24,108,40,72,40,165,40,73,13,148,35*61
$GNGLL,2236.71067,S,04930.07764,W,180832.00,A,D*73
$GNRMC,180833.00,A,2236.71099,S,04930.07840,W,2.783,246.85,200323,,,D*7E
$GPGSV,4,2,13,07,41,313,49,09,37,231,48,16,29,088,46,21,09,010,44*77
$GLGSV,3,1,10,65,17,220,36,71,24,108,40,72,40,165,40,73,13,148,35*61
$GNGLL,2236.71099,S,04930.07840,W,180833.00,A,D*7A
$GNRMC,180834.00,A,2236.71131,S,04930.07919,W,2.953,248.26,200323,,,D*73
$GPGSV,4,1,13,01,31,353,48,03,69,108,51,04,49,183,48,06,21,230,47*7D
$GLGSV,3,1,10,65,17,220,36,71,24,108,41,72,40,165,40,73,13,148,34*61
$GNGLL,2236.71131,S,04930.07919,W,180834.00,A,D*73
$GNRMC,180835.00,A,2236.71167,S,04930.07999,W,2.991,245.96,200323,,,D*71
$GPGSV,4,2,13,07,41,313,49,09,37,231,47,16,29,088,46,21,09,010,44*78
$GLGSV,3,1,10,65,17,220,36,71,24,108,42,72,40,165,40,73,13,148,34*62
$GNGLL,2236.71167,S,04930.07999,W,180835.00,A,D*79
$GNRMC,180836.00,A,2236.71201,S,04930.08079,W,2.990,247.23,200323,,,D*74
$GPGSV,4,1,13,01,31,353,48,03,69,108,51,04,49,183,47,06,21,230,47*72
$GLGSV,3,1,10,65,17,220,36,71,24,108,40,72,40,165,40,73,13,148,34*60
$GNGLL,2236.71201,S,04930.08079,W,180836.00,A,D*71
$GNRMC,180837.00,A,2236.71240,S,04930.08162,W,3.208,244.63,200323,,,D*77
$GPGSV,4,1,13,01,31,353,48,03,69,108,51,04,49,183,48,06,21,230,46*7C
$GLGSV,3,1,10,65,17,220,36,71,24,108,41,72,40,165,40,73,13,148,34*61
$GNGLL,2236.71240,S,04930.08162,W,180837.00,A,D*7E
$GNRMC,180838.00,A,2236.71275,S,04930.08242,W,2.899,246.76,200323,,,D*7A
$GPGSV,4,2,13,07,41,313,49,09,37,231,48,16,29,088,46,21,09,010,42*71
$GLGSV,3,1,10,65,17,220,36,71,24,108,41,72,40,165,39,73,13,148,34*6F
$GNGLL,2236.71275,S,04930.08242,W,180838.00,A,D*76
$GNRMC,180839.00,A,2236.71313,S,04930.08317,W,2.872,243.10,200323,,,D*7B
$GPGSV,4,1,13,01,31,353,48,03,69,108,51,04,49,183,48,06,21,230,47*7D
$GLGSV,3,1,10,65,17,220,35,71,24,108,41,72,40,165,39,73,13,148,35*6D
$GNGLL,2236.71313,S,04930.08317,W,180839.00,A,D*77
$GNGSA,A,3,74,73,65,88,87,71,86,75,72,,,,1.14,0.55,0.99*1C
$GPGSV,4,1,13,01,31,353,48,03,69,108,51,04,49,183,48,06,21,230,47*7D
$GLGSV,3,1,10,65,17,220,35,71,24,108,41,72,40,165,39,73,13,148,35*6D
$GNGLL,2236.71353,S,04930.08392,W,180840.00,A,D*70
$GNRMC,180841.00,A,2236.71391,S,04930.08467,W,2.851,243.04,200323,,,D*7A
$GPGSV,4,2,13,07,41,313,48,09,37,231,49,16,29,088,46,21,09,010,41*72
$GLGSV,3,1,10,65,17,220,35,71,24,108,41,72,40,165,38,73,13,148,34*6D
$GNGLL,2236.71391,S,04930.08467,W,180841.00,A,D*72
$GNGSA,A,3,74,73,65,88,87,71,86,75,72,,,,1.14,0.55,0.99*1C
$GPGSV,4,1,13,01,31,353,48,03,69,108,51,04,49,183,47,06,21,230,47*72
$GLGSV,3,1,10,65,17,220,35,71,24,108,41,72,40,165,39,73,13,148,35*6D
$GNGLL,2236.71425,S,04930.08544,W,180842.00,A,D*79
$GNGSA,A,3,74,73,65,88,87,71,86,75,72,,,,1.14,0.55,0.99*1C
$GPGSV,4,1,13,01,31,353,47,03,69,108,51,04,49,183,47,06,21,230,46*7C
$GLGSV,3,1,10,65,17,220,35,71,24,108,40,72,40,165,39,73,13,148,34*6D
$GNGLL,2236.71460,S,04930.08622,W,180843.00,A,D*7A
$GNGGA,180844.00,2236.71501,S,04930.08697,W,2,12,0.55,645.7,M,-5.2,M,,0000*5F
$GPGSV,4,4,13,49,25,075,48*4F
$GLGSV,3,1,10,65,17,220,34,71,24,108,41,72,40,165,39,73,13,148,35*6C
$GNGLL,2236.71501,S,04930.08697,W,180844.00,A,D*75
$GNRMC,180845.00,A,2236.71540,S,04930.08773,W,2.914,242.78,200323,,,D*78
$GPGSV,4,2,13,07,41,313,49,09,37,231,50,16,29,088,44,21,09,010,42*7A
$GLGSV,3,1,10,65,17,220,34,71,24,108,41,72,40,165,39,73,13,148,34*6D
$GNGLL,2236.71540,S,04930.08773,W,180845.00,A,D*7A
$GNRMC,180846.00,A,2236.71576,S,04930.08854,W,3.057,244.28,200323,,,D*78
$GPGSV,4,3,13,26,16,123,43,30,06,317,40,36,00,087,,46,30,289,40*70
$GLGSV,3,1,10,65,17,220,35,71,24,108,42,72,40,165,39,73,13,148,35*6E
$GNGLL,2236.71576,S,04930.08854,W,180846.00,A,D*76
$GNRMC,180847.00,A,2236.71614,S,04930.08933,W,2.941,243.25,200323,,,D*7B
$GPGSV,4,2,13,07,41,313,48,09,37,231,48,16,29,088,46,21,09,010,41*73
$GLGSV,3,1,10,65,17,220,35,71,24,108,42,72,40,165,39,73,13,148,35*6E
$GNGLL,2236.71614,S,04930.08933,W,180847.00,A,D*70
$GNRMC,180848.00,A,2236.71658,S,04930.09008,W,2.971,239.02,200323,,,D*77
$GPGSV,4,1,13,01,31,353,47,03,69,107,51,04,49,183,48,06,21,230,46*7C
$GLGSV,3,1,10,65,17,220,35,71,24,108,40,72,40,165,39,73,13,148,35*6C
$GNGLL,2236.71658,S,04930.09008,W,180848.00,A,D*77
$GNRMC,180849.00,A,2236.71700,S,04930.09083,W,2.920,239.62,200323,,,D*7B
$GPGSV,4,2,13,07,41,313,48,09,37,231,48,16,29,088,45,21,09,010,41*70
$GLGSV,3,1,10,65,17,220,35,71,24,108,41,72,40,165,39,73,13,148,35*6D
$GNGLL,2236.71700,S,04930.09083,W,180849.00,A,D*79
$GNRMC,180850.00,A,2236.71743,S,04930.09154,W,2.845,237.63,200323,,,D*72
$GPGSV,4,1,13,01,31,353,48,03,69,107,51,04,49,182,48,06,21,230,47*73
$GLGSV,3,1,10,65,17,220,36,71,24,108,40,72,40,165,39,73,13,148,34*6E
$GNGLL,2236.71743,S,04930.09154,W,180850.00,A,D*7D
$GNRMC,180851.00,A,2236.71787,S,04930.09228,W,2.956,237.89,200323,,,D*74
$GPGSV,4,1,13,01,31,353,48,03,69,107,51,04,49,182,48,06,21,230,47*73
$GLGSV,3,1,10,65,17,220,36,71,24,108,39,72,40,165,39,73,13,148,34*60
$GNGLL,2236.71787,S,04930.09228,W,180851.00,A,D*7C
$GNGSA,A,3,74,73,65,88,87,71,86,75,72,,,,1.14,0.55,0.99*1C
$GPGSV,4,1,13,01,31,353,48,03,69,107,51,04,49,182,48,06,21,230,47*73
$GLGSV,3,1,10,65,17,220,35,71,24,108,39,72,40,165,39,73,13,148,34*63
$GNGLL,2236.71827,S,04930.09308,W,180852.00,A,D*79
$GNRMC,180853.00,A,2236.71865,S,04930.09385,W,2.882,241.49,200323,,,D*76
$GPGSV,4,1,13,01,31,353,48,03,69,107,51,04,49,182,48,06,21,230,47*73
$GLGSV,3,1,10,65,17,220,35,71,24,108,40,72,40,165,40,73,13,148,35*62
$GNGLL,2236.71865,S,04930.09385,W,180853.00,A,D*7B
$GNRMC,180854.00,A,2236.71902,S,04930.09461,W,2.924,244.40,200323,,,D*7D
$GPGSV,4,2,13,07,41,313,48,09,37,230,48,16,29,088,46,21,09,010,43*70
$GLGSV,3,1,10,65,17,220,35,71,24,108,40,72,40,165,40,73,13,148,35*62
$GNGGA,180855.00,2236.71940,S,04930.09537,W,2,12,0.55,645.5,M,-5.2,M,,0000*5C
$GLGSV,3,1,10,65,17,220,35,71,24,108,41,72,40,165,40,73,13,148,36*60
$GNGLL,2236.71940,S,04930.09537,W,180855.00,A,D*74
$GNRMC,180856.00,A,2236.71980,S,04930.09613,W,2.928,242.16,200323,,,D*7B
$GPGSV,4,3,13,26,16,123,43,30,06,317,39,36,00,087,,46,30,289,40*7E
$GLGSV,3,1,10,65,17,220,35,71,24,108,41,72,40,165,40,73,13,148,35*63
$GNGLL,2236.71980,S,04930.09613,W,180856.00,A,D*7E
$GNRMC,180857.00,A,2236.72016,S,04930.09692,W,3.021,244.57,200323,,,D*74
$GPGSV,4,2,13,07,41,313,49,09,37,230,48,16,29,088,46,21,09,010,44*76
$GLGSV,3,1,10,65,17,220,35,71,24,108,41,72,40,165,40,73,13,148,36*60
$GNGLL,2236.72016,S,04930.09692,W,180857.00,A,D*73
$GNRMC,180858.00,A,2236.72050,S,04930.09771,W,2.878,246.14,200323,,,D*75
$GPGSV,4,1,13,01,31,353,48,03,69,107,51,04,49,182,48,06,21,230,47*73
$GLGSV,3,1,10,65,17,220,35,71,24,108,41,72,40,165,39,73,13,148,36*6E
$GNGLL,2236.72050,S,04930.09771,W,180858.00,A,D*72
$GNRMC,180859.00,A,2236.72084,S,04930.09850,W,2.953,245.60,200323,,,D*79
$GPGSV,4,2,13,07,41,313,48,09,37,230,49,16,29,088,46,21,09,010,44*76
$GLGSV,3,1,10,65,17,220,35,71,24,108,41,72,40,165,40,73,13,148,36*60
$GNGLL,2236.72084,S,04930.09850,W,180859.00,A,D*76
$GNRMC,180900.00,A,2236.72124,S,04930.09923,W,2.817,240.75,200323,,,D*7A
$GPGSV,4,1,14,01,31,353,48,03,69,107,51,04,49,182,48,06,21,230,47*74
$GLGSV,3,1,10,65,17,220,36,71,24,108,41,72,40,165,40,73,13,148,38*6D
$GNGLL,2236.72124,S,04930.09923,W,180900.00,A,D*75
$GNRMC,180901.00,A,2236.72162,S,04930.09999,W,2.966,242.81,200323,,,D*76
$GLGSV,3,1,10,65,17,220,36,71,24,108,40,72,40,165,40,73,13,148,38*6C
$GNGLL,2236.72162,S,04930.09999,W,180901.00,A,D*77
$GNRMC,180902.00,A,2236.72201,S,04930.10075,W,2.909,241.67,200323,,,D*72
$GPGSV,4,2,14,07,41,313,49,09,37,230,48,16,29,088,46,21,09,010,44*71
$GLGSV,3,1,10,65,17,220,35,71,24,108,40,72,40,165,40,73,13,148,37*60
$GNGLL,2236.72201,S,04930.10075,W,180902.00,A,D*71
$GNRMC,180903.00,A,2236.72241,S,04930.10148,W,2.814,239.87,200323,,,D*74
$GPGSV,4,1,14,01,31,353,48,03,69,107,51,04,49,182,48,06,21,230,47*74
$GLGSV,3,1,10,65,17,220,34,71,24,108,41,72,40,165,39,73,13,148,36*6F
$GNGLL,2236.72241,S,04930.10148,W,180903.00,A,D*7B
$GNRMC,180904.00,A,2236.72284,S,04930.10221,W,2.958,238.56,200323,,,D*72
$GPGSV,4,2,14,07,41,313,50,09,37,230,48,16,29,088,46,21,09,010,44*79
$GLGSV,3,1,10,65,17,220,35,71,24,108,41,72,40,165,40,73,13,148,36*60
$GNGLL,2236.72284,S,04930.10221,W,180904.00,A,D*79
$GNRMC,180905.00,A,2236.72326,S,04930.10297,W,2.968,239.02,200323,,,D*74
$GPGSV,4,2,15,07,41,313,48,09,37,230,48,16,29,088,46,21,09,010,44*71
$GLGSV,3,1,10,65,17,220,35,71,24,108,41,72,40,165,40,73,13,148,36*60
$GNGLL,2236.72326,S,04930.10297,W,180905.00,A,D*7C
$GNRMC,180906.00,A,2236.72361,S,04930.10379,W,3.134,245.47,200323,,,D*7F
$GPGSV,4,1,14,01,31,353,48,03,69,107,51,04,49,182,48,06,21,230,47*74
$GLGSV,3,1,10,65,17,220,36,71,24,108,40,72,40,165,39,73,13,148,35*6F
$GNGLL,2236.72361,S,04930.10379,W,180906.00,A,D*7D
$GNRMC,180907.00,A,2236.72392,S,04930.10465,W,3.105,247.71,200323,,,D*7D
$GPGSV,4,2,14,07,41,313,50,09,37,230,48,16,29,088,45,21,09,010,44*7A
$GLGSV,3,1,10,65,17,220,36,71,24,108,40,72,40,165,39,73,13,148,33*69
$GNGLL,2236.72392,S,04930.10465,W,180907.00,A,D*7A
$GNRMC,180908.00,A,2236.72421,S,04930.10548,W,2.956,249.48,200323,,,D*78
$GPGSV,4,2,14,07,41,313,50,09,37,230,48,16,29,088,45,21,09,010,44*7A
$GLGSV,3,1,10,65,17,220,36,71,24,108,40,72,40,165,38,73,13,148,33*68
$GNGLL,2236.72421,S,04930.10548,W,180908.00,A,D*74
$GNRMC,180909.00,A,2236.72455,S,04930.10627,W,2.967,245.35,200323,,,D*74
$GPGSV,4,1,14,01,31,353,47,03,69,107,51,04,49,182,47,06,21,230,46*75
$GLGSV,3,1,10,65,17,220,35,71,24,108,40,72,40,165,38,73,13,148,34*6C
$GNGLL,2236.72455,S,04930.10627,W,180909.00,A,D*7C
$GNRMC,180910.00,A,2236.72491,S,04930.10702,W,2.852,244.27,200323,,,D*77
$GLGSV,3,1,10,65,17,220,35,71,24,108,40,72,40,165,38,73,13,148,34*6C
$GNGLL,2236.72491,S,04930.10702,W,180910.00,A,D*7A
$GNRMC,180911.00,A,2236.72529,S,04930.10777,W,2.921,242.10,200323,,,D*71
$GPGSV,4,2,14,07,41,313,50,09,37,230,48,16,29,088,44,21,09,010,44*7B
$GLGSV,3,1,10,65,17,220,36,71,24,108,41,72,40,165,38,73,13,148,34*6E
$GNGLL,2236.72529,S,04930.10777,W,180911.00,A,D*7B
$GNRMC,180912.00,A,2236.72567,S,04930.10853,W,2.963,242.68,200323,,,D*78
$GPGSV,4,1,14,01,31,353,47,03,69,107,50,04,49,182,48,06,21,230,47*7A
$GLGSV,3,1,10,65,17,220,35,71,24,108,41,72,40,165,39,73,13,148,34*6C
$GNGLL,2236.72567,S,04930.10853,W,180912.00,A,D*7B
$GPGSV,4,1,14,01,31,353,48,03,69,107,50,04,49,182,48,06,21,230,48*7A
$GLGSV,3,1,10,65,17,220,36,71,24,108,41,72,40,165,39,73,13,148,33*68
$GNGLL,2236.72603,S,04930.10929,W,180913.00,A,D*77
$GNRMC,180914.00,A,2236.72636,S,04930.11008,W,3.007,246.04,200323,,,D*7A
$GPGSV,4,2,14,07,41,313,50,09,37,230,48,16,29,088,45,21,09,010,44*7A
$GLGSV,3,1,10,65,17,220,35,71,24,108,41,72,40,165,39,73,13,148,33*6B
$GNGLL,2236.72636,S,04930.11008,W,180914.00,A,D*7D
$GNRMC,180915.00,A,2236.72671,S,04930.11087,W,2.958,245.40,200323,,,D*7E
$GPGSV,4,1,14,01,31,353,48,03,69,107,50,04,49,182,48,06,21,230,46*74
$GLGSV,3,1,10,65,17,220,35,71,24,108,41,72,40,165,40,73,13,148,34*62
$GNGLL,2236.72671,S,04930.11087,W,180915.00,A,D*78
$GNRMC,180916.00,A,2236.72713,S,04930.11163,W,2.957,240.62,200323,,,D*79
$GPGSV,4,1,14,01,31,353,47,03,69,107,50,04,49,182,48,06,21,230,46*7B
$GLGSV,3,1,10,65,17,220,35,71,24,108,41,72,40,165,40,73,13,148,34*62
$GNGLL,2236.72713,S,04930.11163,W,180916.00,A,D*75
$GNRMC,180917.00,A,2236.72754,S,04930.11237,W,2.937,241.20,200323,,,D*78
$GPGSV,4,1,14,01,31,353,47,03,69,107,51,04,49,182,48,06,21,230,46*7A
$GLGSV,3,1,10,65,17,220,35,71,24,108,41,72,40,165,40,73,13,148,35*63
$GNGLL,2236.72754,S,04930.11237,W,180917.00,A,D*75
$GNRMC,180918.00,A,2236.72795,S,04930.11311,W,2.822,240.53,200323,,,D*7F
$GPGSV,4,1,14,01,31,353,47,03,69,107,51,04,49,182,48,06,21,230,47*7B
$GLGSV,3,1,10,65,17,220,35,71,24,108,41,72,40,165,40,73,13,148,35*63
$GNGLL,2236.72795,S,04930.11311,W,180918.00,A,D*72
$GNRMC,180919.00,A,2236.72834,S,04930.11386,W,2.939,242.33,200323,,,D*7B
$GPGSV,4,1,14,01,31,353,48,03,69,107,51,04,49,182,48,06,21,230,47*74
$GLGSV,3,1,10,65,17,220,35,71,24,108,41,72,40,165,40,73,13,148,36*60
$GNGLL,2236.72834,S,04930.11386,W,180919.00,A,D*79
$GNRMC,180920.00,A,2236.72873,S,04930.11460,W,2.816,241.10,200323,,,D*73
$GPGSV,4,1,14,01,31,353,47,03,69,107,51,04,49,182,47,06,21,230,47*74
$GLGSV,3,1,10,65,17,220,36,71,24,108,41,72,40,165,40,73,13,148,36*63
$GNGLL,2236.72873,S,04930.11460,W,180920.00,A,D*7F
$GNRMC,180921.00,A,2236.72913,S,04930.11534,W,2.932,240.66,200323,,,D*72
$GPGSV,4,1,14,01,31,353,48,03,69,107,50,04,49,182,47,06,21,230,47*7A
$GLGSV,3,1,10,65,17,220,36,71,24,108,41,72,40,165,38,73,13,148,36*6C
$GNGLL,2236.72913,S,04930.11534,W,180921.00,A,D*79
$GNRMC,180922.00,A,2236.72949,S,04930.11614,W,3.004,244.89,200323,,,D*77
$GPGSV,4,1,14,01,31,353,48,03,69,107,51,04,49,182,47,06,21,230,46*7A
$GLGSV,3,1,10,65,17,220,36,71,24,108,41,72,40,165,40,73,13,148,36*63
$GNGLL,2236.72949,S,04930.11614,W,180922.00,A,D*74
$GNRMC,180923.00,A,2236.72984,S,04930.11695,W,2.968,245.83,200323,,,D*77
$GPGSV,4,1,14,01,31,353,48,03,69,107,51,04,49,182,47,06,21,230,47*7B
$GLGSV,3,1,10,65,17,220,35,71,24,108,41,72,40,165,40,73,13,148,36*60
$GNGLL,2236.72984,S,04930.11695,W,180923.00,A,D*7D
$GNRMC,180924.00,A,2236.73019,S,04930.11775,W,2.978,246.10,200323,,,D*7B
$GPGSV,4,1,14,01,31,353,48,03,69,107,50,04,49,182,47,06,21,230,48*75
$GLGSV,3,1,10,65,17,220,35,71,24,108,40,72,40,165,38,73,13,148,35*6D
$GNGLL,2236.73019,S,04930.11775,W,180924.00,A,D*79
$GNRMC,180925.00,A,2236.73055,S,04930.11855,W,2.962,245.51,200323,,,D*72
$GPGSV,4,1,14,01,31,353,47,03,69,107,50,04,49,182,47,06,21,230,47*75
$GLGSV,3,1,10,65,17,220,36,71,24,108,39,72,40,165,39,73,13,148,35*61
$GNGLL,2236.73055,S,04930.11855,W,180925.00,A,D*7D
$GNRMC,180926.00,A,2236.73092,S,04930.11930,W,2.795,244.06,200323,,,D*7D
$GPGSV,4,1,14,01,31,353,47,03,69,107,51,04,49,182,48,06,21,230,47*7B
$GLGSV,3,1,10,65,17,220,35,71,24,108,39,72,40,165,39,73,13,148,34*63
$GNGLL,2236.73092,S,04930.11930,W,180926.00,A,D*77
$GNRMC,180927.00,A,2236.73132,S,04930.12004,W,2.886,242.08,200323,,,D*7F
$GPGSV,4,2,14,07,41,313,50,09,37,230,48,16,29,088,45,21,09,010,44*7A
$GLGSV,3,1,10,65,17,220,35,71,24,108,40,72,40,165,39,73,13,148,35*6C
$GNGLL,2236.73132,S,04930.12004,W,180927.00,A,D*70
$GNRMC,180928.00,A,2236.73172,S,04930.12080,W,2.956,242.25,200323,,,D*7B
$GPGSV,4,1,14,01,31,353,47,03,69,107,51,04,49,182,47,06,21,230,47*74
$GLGSV,3,1,10,65,17,220,35,71,24,108,40,72,40,165,40,73,13,148,35*62
$GNGLL,2236.73172,S,04930.12080,W,180928.00,A,D*77
$GNRMC,180929.00,A,2236.73211,S,04930.12161,W,3.077,244.40,200323,,,D*7C
$GPGSV,4,2,14,07,41,313,50,09,37,230,48,16,29,088,46,21,09,010,44*79
$GLGSV,3,1,10,65,17,220,36,71,24,108,41,72,40,165,40,73,13,148,36*63
$GNGLL,2236.73211,S,04930.12161,W,180929.00,A,D*7E
$GNRMC,180930.00,A,2236.73256,S,04930.12241,W,3.203,239.81,200323,,,D*70
$GPGSV,4,2,14,07,41,313,49,09,37,230,47,16,29,088,44,21,09,010,40*78
$GLGSV,3,1,10,65,17,220,36,71,24,108,40,72,40,165,41,73,13,148,35*60
$GNGLL,2236.73256,S,04930.12241,W,180930.00,A,D*74
$GNRMC,180931.00,A,2236.73305,S,04930.12309,W,2.702,235.47,200323,,,D*78
$GPGSV,4,1,14,01,31,353,48,03,69,107,51,04,49,182,47,06,21,230,47*7B
$GLGSV,3,1,10,65,17,220,37,71,24,108,41,72,40,165,39,73,13,148,36*6C
$GNGLL,2236.73305,S,04930.12309,W,180931.00,A,D*7F
$GNRMC,180932.00,A,2236.73344,S,04930.12376,W,2.602,239.21,200323,,,D*7B
$GPGSV,4,2,14,07,41,313,50,09,37,230,48,16,29,088,45,21,09,010,44*7A
$GLGSV,3,1,10,65,17,220,36,71,24,108,41,72,40,165,39,73,13,148,36*6D
$GNGLL,2236.73344,S,04930.12376,W,180932.00,A,D*71
$GNRMC,180933.00,A,2236.73379,S,04930.12443,W,2.552,240.91,200323,,,D*76
$GPGSV,4,2,14,07,41,313,49,09,37,230,48,16,29,088,45,21,09,010,46*70
$GLGSV,3,1,10,65,17,220,36,71,24,108,41,72,40,165,39,73,13,148,36*6D
$GNGLL,2236.73379,S,04930.12443,W,180933.00,A,D*7F
$GNRMC,180934.00,A,2236.73420,S,04930.12515,W,2.899,238.81,200323,,,D*7C
$GPGSV,4,1,14,01,31,353,48,03,69,107,51,04,49,182,48,06,21,230,48*7B
$GLGSV,3,1,10,65,17,220,36,71,24,108,42,72,40,165,40,73,13,148,36*60
$GNGLL,2236.73420,S,04930.12515,W,180934.00,A,D*71
$GNRMC,180935.00,A,2236.73457,S,04930.12588,W,2.781,241.56,200323,,,D*7B
$GPGSV,4,2,14,07,41,313,49,09,37,230,48,16,29,088,45,21,09,010,41*77
$GLGSV,3,1,10,65,17,220,37,71,24,108,41,72,40,165,39,73,13,148,36*6C20/03/23 15:09:35 - $X7CONNECT
