$GLGSV,3,1,10,69,10,131,37,70,39,191,36,71,24,249,43,73,14,023,23*67
$GNGLL,2237.48016,S,04928.05076,W,145443.00,A,D*72
$GNRMC,145444.00,A,2237.48015,S,04928.05076,W,0.005,,040423,,,D*6B
$GPGSV,4,1,16,01,72,230,52,03,37,211,47,04,42,277,49,08,13,345,*7A
$GLGSV,3,1,10,69,10,131,37,70,39,191,36,71,24,249,43,73,14,023,23*67
$GNGLL,2237.48015,S,04928.05076,W,145444.00,A,D*76
$GNRMC,145445.00,A,2237.48015,S,04928.05075,W,0.005,,040423,,,D*69
$GPGSV,4,2,16,09,12,292,46,16,04,033,,17,09,238,43,21,72,354,49*72
$GLGSV,3,1,10,69,10,131,37,70,39,191,36,71,24,249,43,73,14,023,23*67
$GNGLL,2237.48015,S,04928.05075,W,145445.00,A,D*74
$GPGSV,4,2,16,09,12,292,46,16,04,033,,17,09,238,43,21,72,354,49*72
$GLGSV,3,1,10,69,10,131,37,70,39,191,36,71,24,249,42,73,14,023,24*61
$GNGLL,2237.48015,S,04928.05075,W,145446.00,A,D*77
$GNRMC,145447.00,A,2237.48015,S,04928.05075,W,0.004,,040423,,,D*6A
$GPGSV,4,2,16,09,12,292,46,16,04,033,,17,09,238,43,21,72,354,48*73
$GLGSV,3,1,10,69,10,131,37,70,39,191,36,71,24,249,42,73,14,023,25*60
$GNGLL,2237.48015,S,04928.05075,W,145447.00,A,D*76
$GNRMC,145448.00,A,2237.48015,S,04928.05075,W,0.011,,040423,,,D*61
$GPGSV,4,2,16,09,12,292,46,16,04,033,,17,09,238,42,21,72,354,48*72
$GLGSV,3,1,10,69,10,131,37,70,39,191,36,71,24,249,41,73,14,023,24*62
$GNGLL,2237.48015,S,04928.05075,W,145448.00,A,D*79
$GNRMC,145449.00,A,2237.48015,S,04928.05075,W,0.012,,040423,,,D*63
$GPGSV,4,1,16,01,72,231,52,03,37,211,47,04,42,277,48,08,13,345,*7A
$GLGSV,3,1,10,69,10,131,36,70,39,191,36,71,24,249,41,73,14,023,23*64
$GNGLL,2237.48015,S,04928.05075,W,145449.00,A,D*78
$GNRMC,145450.00,A,2237.48015,S,04928.05075,W,0.007,,040423,,,D*6F
$GPGSV,4,1,16,01,72,231,52,03,37,211,47,04,42,277,48,08,13,345,*7A
$GLGSV,3,1,10,69,10,131,37,70,39,191,36,71,24,249,41,73,14,023,22*64
$GNGLL,2237.48015,S,04928.05075,W,145450.00,A,D*70
$GNRMC,145451.00,A,2237.48015,S,04928.05074,W,0.023,,040423,,,D*69
$GPGSV,4,2,16,09,12,292,46,16,04,033,,17,09,238,42,21,72,354,49*73
$GLGSV,3,1,10,69,10,131,38,70,39,191,35,71,24,249,41,73,14,023,21*6B
$GNGLL,2237.48015,S,04928.05074,W,145451.00,A,D*70
$GNRMC,145452.00,A,2237.48015,S,04928.05075,W,0.011,,040423,,,D*6A
$GPGSV,4,1,16,01,72,231,52,03,37,210,48,04,42,276,48,08,13,345,*75
$GLGSV,3,1,10,69,10,131,37,70,39,191,36,71,24,249,41,73,14,023,20*66
$GNGLL,2237.48015,S,04928.05075,W,145452.00,A,D*72
$GNRMC,145453.00,A,2237.48015,S,04928.05075,W,0.012,,040423,,,D*68
$GPGSV,4,2,16,09,12,292,46,16,04,033,,17,09,238,42,21,72,354,48*72
$GLGSV,3,1,10,69,10,131,37,70,39,191,36,71,24,249,41,73,14,023,19*6C
$GNGLL,2237.48015,S,04928.05075,W,145453.00,A,D*73
$GNRMC,145454.00,A,2237.48015,S,04928.05075,W,0.005,,040423,,,D*69
$GPGSV,4,2,16,09,12,292,46,16,04,033,,17,09,238,41,21,72,354,48*71
$GLGSV,3,1,10,69,10,131,37,70,39,191,36,71,24,249,41,73,14,023,21*67
$GNGLL,2237.48015,S,04928.05075,W,145454.00,A,D*74
$GNRMC,145455.00,A,2237.48014,S,04928.05075,W,0.016,,040423,,,D*6B
$GPGSV,4,2,16,09,12,292,45,16,04,033,,17,09,238,41,21,72,354,48*72
$GLGSV,3,1,10,69,10,131,38,70,39,191,36,71,24,249,41,73,14,023,22*6B
$GNGLL,2237.48014,S,04928.05075,W,145455.00,A,D*74
$GNRMC,145456.00,A,2237.48014,S,04928.05075,W,0.005,,040423,,,D*6A
$GPGSV,4,2,16,09,12,292,45,16,04,033,,17,09,238,41,21,72,354,49*73
$GLGSV,3,1,10,69,10,131,38,70,39,191,36,71,24,249,41,73,14,023,22*6B
$GNGLL,2237.48014,S,04928.05075,W,145456.00,A,D*77
$GNRMC,145457.00,A,2237.48014,S,04928.05075,W,0.006,,040423,,,D*68
$GPGSV,4,1,16,01,72,231,52,03,37,210,47,04,42,276,48,08,12,345,*7B
$GLGSV,3,1,10,69,10,131,39,70,39,191,36,71,24,249,42,73,14,023,19*61
$GNGLL,2237.48014,S,04928.05075,W,145457.00,A,D*76
$GNRMC,145458.00,A,2237.48013,S,04928.05075,W,0.011,,040423,,,D*66
$GPGSV,4,1,16,01,72,231,52,03,37,210,48,04,42,276,48,08,12,345,*74
$GLGSV,3,1,10,69,10,131,39,70,39,191,36,71,24,249,42,73,14,023,16*6E
$GNGLL,2237.48013,S,04928.05075,W,145458.00,A,D*7E
$GNRMC,145459.00,A,2237.48013,S,04928.05076,W,0.016,,040423,,,D*63
$GPGSV,4,2,16,09,12,292,45,16,04,033,,17,09,238,43,21,72,354,48*70
$GLGSV,3,1,10,69,10,131,37,70,39,191,36,71,24,249,42,73,14,023,16*60
$GNGLL,2237.48013,S,04928.05076,W,145459.00,A,D*7C
$GNRMC,145500.00,A,2237.48013,S,04928.05076,W,0.020,,040423,,,D*6B
$GPGSV,4,1,16,01,72,231,52,03,37,210,47,04,42,276,48,08,12,345,*7B
$GLGSV,3,1,10,69,10,131,37,70,39,191,36,71,24,249,42,73,14,023,19*6F
$GNGLL,2237.48013,S,04928.05076,W,145500.00,A,D*71
$GNRMC,145501.00,A,2237.48012,S,04928.05076,W,0.003,,040423,,,D*6A
$GPGSV,4,1,16,01,72,231,52,03,37,210,47,04,42,276,48,08,12,345,*7B
$GLGSV,3,1,10,69,10,131,37,70,39,191,36,71,24,249,42,73,14,023,22*67
$GNGLL,2237.48012,S,04928.05076,W,145501.00,A,D*71
$GNRMC,145502.00,A,2237.48012,S,04928.05076,W,0.005,,040423,,,D*6F
$GPGSV,4,2,16,09,12,292,45,16,04,033,,17,09,238,43,21,72,354,49*71
$GLGSV,3,1,10,69,10,131,38,70,39,191,36,71,24,249,43,73,14,023,23*68
$GNGLL,2237.48012,S,04928.05076,W,145502.00,A,D*72
$GNRMC,145503.00,A,2237.48012,S,04928.05076,W,0.004,,040423,,,D*6F
$GPGSV,4,1,16,01,72,231,52,03,37,210,47,04,42,276,48,08,12,345,*7B
$GLGSV,3,1,10,69,10,131,38,70,39,191,36,71,24,249,42,73,14,023,24*6E
$GNGLL,2237.48012,S,04928.05076,W,145503.00,A,D*73
$GNRMC,145504.00,A,2237.48012,S,04928.05077,W,0.019,,040423,,,D*65
$GPGSV,4,2,16,09,12,292,44,16,04,033,,17,09,238,43,21,72,354,49*70
$GLGSV,3,1,10,69,10,131,39,70,39,191,36,71,24,249,42,73,14,023,24*6F
$GNGLL,2237.48012,S,04928.05077,W,145504.00,A,D*75
$GNRMC,145505.00,A,2237.48012,S,04928.05077,W,0.010,,040423,,,D*6D
$GPGSV,4,2,16,09,12,292,44,16,04,033,,17,09,238,43,21,72,354,48*71
$GLGSV,3,1,10,69,10,131,39,70,39,191,36,71,24,249,43,73,14,023,24*6E
$GNGLL,2237.48012,S,04928.05077,W,145505.00,A,D*74
$GNRMC,145506.00,A,2237.48013,S,04928.05077,W,0.008,,040423,,,D*66
$GPGSV,4,1,16,01,72,231,51,03,37,210,47,04,42,276,48,08,12,345,*78
$GLGSV,3,1,10,69,10,131,39,70,39,191,36,71,24,249,43,73,14,023,25*6F
$GNGLL,2237.48013,S,04928.05077,W,145506.00,A,D*76
$GNRMC,145507.00,A,2237.48014,S,04928.05077,W,0.003,,040423,,,D*6B
$GPGSV,4,2,16,09,12,292,43,16,04,033,,17,09,238,43,21,72,354,48*76
$GLGSV,3,1,10,69,10,131,38,70,39,191,36,71,24,249,43,73,14,023,26*6D
$GNGLL,2237.48014,S,04928.05077,W,145507.00,A,D*70
$GNRMC,145508.00,A,2237.48014,S,04928.05077,W,0.008,,040423,,,D*6F
$GPGSV,4,1,16,01,72,231,52,03,37,210,47,04,42,276,49,08,12,345,*7A
$GLGSV,3,1,10,69,10,131,38,70,39,191,36,71,24,249,43,73,14,023,26*6D
$GNGLL,2237.48014,S,04928.05077,W,145508.00,A,D*7F
$GNRMC,145509.00,A,2237.48014,S,04928.05077,W,0.007,,040423,,,D*61
$GPGSV,4,1,16,01,72,231,52,03,37,210,47,04,42,276,49,08,12,345,*7A
$GLGSV,3,1,10,69,10,131,38,70,39,191,36,71,24,249,42,73,14,023,28*62
$GNGLL,2237.48014,S,04928.05077,W,145509.00,A,D*7E
$GNRMC,145510.00,A,2237.48015,S,04928.05077,W,0.006,,040423,,,D*69
$GPGSV,4,2,16,09,12,292,43,16,04,033,,17,09,238,41,21,71,354,48*77
$GLGSV,3,1,10,69,10,131,39,70,39,191,36,71,24,249,42,73,14,023,28*63
$GNGLL,2237.48015,S,04928.05077,W,145510.00,A,D*77
$GNRMC,145511.00,A,2237.48016,S,04928.05077,W,0.010,,040423,,,D*6C
$GPGSV,4,1,16,01,72,231,52,03,37,210,47,04,42,276,48,08,12,345,*7B
$GLGSV,3,1,10,69,10,131,38,70,39,191,36,71,24,249,42,73,14,023,28*62
$GNGLL,2237.48016,S,04928.05077,W,145511.00,A,D*75
$GNRMC,145512.00,A,2237.48016,S,04928.05077,W,0.013,,040423,,,D*6C
$GPGSV,4,1,16,01,72,231,52,03,37,210,47,04,42,276,48,08,12,345,*7B
$GLGSV,3,1,10,69,10,131,37,70,39,191,36,71,24,249,42,73,14,023,26*63
$GNGLL,2237.48016,S,04928.05077,W,145512.00,A,D*76
$GNRMC,145513.00,A,2237.48017,S,04928.05077,W,0.008,,040423,,,D*66
$GPGSV,4,2,16,09,12,292,44,16,04,033,,17,09,238,42,21,71,354,48*73
$GLGSV,3,1,10,69,10,131,37,70,39,191,35,71,24,249,42,73,14,023,24*62
$GNGLL,2237.48017,S,04928.05077,W,145513.00,A,D*76
$GNRMC,145514.00,A,2237.48017,S,04928.05078,W,0.028,,040423,,,D*6C
$GPGSV,4,2,16,09,12,292,44,16,04,033,,17,09,238,43,21,71,354,48*72
$GLGSV,3,1,10,69,10,131,37,70,39,191,35,71,24,249,42,73,14,023,25*63
$GNGLL,2237.48017,S,04928.05078,W,145514.00,A,D*7E
$GNRMC,145515.00,A,2237.48017,S,04928.05078,W,0.002,,040423,,,D*65
$GPGSV,4,1,16,01,72,231,52,03,37,210,47,04,42,276,48,08,12,345,*7B
$GLGSV,3,1,10,69,10,131,36,70,39,191,35,71,24,249,42,73,14,023,25*62
$GNGLL,2237.48017,S,04928.05078,W,145515.00,A,D*7F
$GNRMC,145516.00,A,2237.48018,S,04928.05078,W,0.018,,040423,,,D*62
$GPGSV,4,1,16,01,72,231,52,03,37,210,47,04,42,276,48,08,12,345,*7B
$GLGSV,3,1,10,69,10,131,36,70,39,191,36,71,24,249,43,73,14,023,25*60
$GNGLL,2237.48018,S,04928.05078,W,145516.00,A,D*73
$GNRMC,145517.00,A,2237.48017,S,04928.05077,W,0.004,,040423,,,D*6E
$GPGSV,4,1,16,01,72,231,52,03,37,210,47,04,42,276,48,08,12,345,*7B
$GLGSV,3,1,10,69,10,131,35,70,39,191,36,71,24,249,43,73,14,023,25*63
$GNGLL,2237.48017,S,04928.05077,W,145517.00,A,D*72
$GNRMC,145518.00,A,2237.48016,S,04928.05077,W,0.007,,040423,,,D*63
$GPGSV,4,1,16,01,72,231,52,03,37,210,47,04,42,276,48,08,12,345,*7B
$GLGSV,3,1,10,69,10,131,35,70,39,191,36,71,24,249,44,73,14,023,25*64
$GNGLL,2237.48016,S,04928.05077,W,145518.00,A,D*7C
$GNGSA,A,3,84,70,69,71,79,86,80,,,,,,1.20,0.65,1.01*16
$GPGSV,4,1,16,01,72,231,52,03,37,210,47,04,42,276,48,08,12,345,*7B
$GLGSV,3,1,10,69,10,131,35,70,39,191,36,71,24,249,44,73,14,023,23*62
$GNGLL,2237.48016,S,04928.05077,W,145519.00,A,D*7D
$GNRMC,145520.00,A,2237.48017,S,04928.05076,W,0.010,,040423,,,D*6E
$GPGSV,4,1,16,01,72,231,52,03,37,210,47,04,42,276,48,08,12,345,*7B
$GLGSV,3,1,10,69,10,131,35,70,39,191,36,71,24,249,44,73,14,023,21*60
$GNGLL,2237.48017,S,04928.05076,W,145520.00,A,D*77
$GNRMC,145521.00,A,2237.48017,S,04928.05076,W,0.010,,040423,,,D*6F
$GPGSV,4,1,16,01,72,231,52,03,37,210,47,04,42,276,48,08,12,345,*7B
$GLGSV,3,1,10,69,10,131,35,70,39,191,35,71,24,249,44,73,14,023,20*62
$GNGLL,2237.48017,S,04928.05076,W,145521.00,A,D*76
$GNGSA,A,3,84,70,69,71,79,86,80,,,,,,1.20,0.65,1.01*16
$GPGSV,4,1,16,01,72,231,52,03,37,210,47,04,42,276,48,08,12,345,*7B
$GLGSV,3,1,10,69,10,131,35,70,39,191,35,71,24,249,44,73,14,023,21*63
$GNGLL,2237.48017,S,04928.05076,W,145522.00,A,D*75
$GNRMC,145523.00,A,2237.48018,S,04928.05075,W,0.016,,040423,,,D*67
$GPGSV,4,1,16,01,72,231,52,03,37,210,47,04,42,276,48,08,12,345,*7B
$GLGSV,3,1,10,69,10,131,35,70,39,191,34,71,24,249,44,73,14,023,23*60
$GNGLL,2237.48018,S,04928.05075,W,145523.00,A,D*78
$GNRMC,145524.00,A,2237.48018,S,04928.05075,W,0.013,,040423,,,D*65
$GPGSV,4,2,16,09,12,292,47,16,04,033,,17,09,238,44,21,71,354,49*77
$GLGSV,3,1,10,69,10,131,36,70,39,191,35,71,24,249,44,73,14,023,26*67
$GNGLL,2237.48018,S,04928.05075,W,145524.00,A,D*7F
$GNRMC,145525.00,A,2237.48018,S,04928.05074,W,0.012,,040423,,,D*64
$GPGSV,4,1,16,01,72,231,52,03,37,210,47,04,42,276,48,08,12,345,*7B
$GLGSV,3,1,10,69,10,131,35,70,39,191,35,71,24,249,44,73,14,023,28*6A
$GNGLL,2237.48018,S,04928.05074,W,145525.00,A,D*7F
$GNRMC,145526.00,A,2237.48018,S,04928.05074,W,0.005,,040423,,,D*61
$GPGSV,4,2,16,09,12,292,47,16,04,033,,17,09,238,43,21,71,354,49*70
$GLGSV,3,1,10,69,10,131,35,70,39,191,35,71,24,249,44,73,14,023,29*6B
$GNGLL,2237.48018,S,04928.05074,W,145526.00,A,D*7C
$GNGSA,A,3,84,70,69,71,79,86,80,,,,,,1.20,0.65,1.01*16
$GPGSV,4,1,16,01,72,231,52,03,37,210,48,04,42,276,48,08,12,345,*74
$GLGSV,3,1,10,69,10,131,35,70,39,191,35,71,24,249,44,73,14,023,29*6B
$GNGLL,2237.48018,S,04928.05073,W,145527.00,A,D*7A
$GNRMC,145528.00,A,2237.48018,S,04928.05072,W,0.006,,040423,,,D*6A
$GPGSV,4,1,16,01,72,231,52,03,37,210,48,04,42,276,48,08,12,345,*74
$GLGSV,3,1,10,69,10,131,35,70,39,191,35,71,24,249,43,73,14,023,29*6C
$GNGLL,2237.48018,S,04928.05072,W,145528.00,A,D*74
$GNRMC,145529.00,A,2237.48017,S,04928.05071,W,0.001,,040423,,,D*60
$GPGSV,4,2,16,09,12,292,48,16,04,033,,17,09,238,43,21,71,354,48*7E
$GLGSV,3,1,10,69,10,131,36,70,39,191,35,71,24,249,44,73,14,023,30*60
$GNGLL,2237.48017,S,04928.05071,W,145529.00,A,D*79
$GNRMC,145530.00,A,2237.48018,S,04928.05070,W,0.023,,040423,,,D*66
$GPGSV,4,4,16,36,00,087,,46,01,274,37,48,05,276,41,49,25,075,*75
$GLGSV,3,1,10,69,10,131,37,70,39,191,35,71,24,249,44,73,14,023,29*69
$GNGLL,2237.48018,S,04928.05070,W,145530.00,A,D*7F
$GNRMC,145531.00,A,2237.48018,S,04928.05069,W,0.004,,040423,,,D*6A
$GPGSV,4,1,16,01,72,231,51,03,37,210,47,04,42,276,49,08,12,345,*79
$GLGSV,3,1,10,69,10,131,36,70,39,191,35,71,24,249,44,73,14,023,28*69
$GNGLL,2237.48018,S,04928.05069,W,145531.00,A,D*76
$GNRMC,145532.00,A,2237.48017,S,04928.05068,W,0.005,,040423,,,D*66
$GPGSV,4,2,16,09,12,292,48,16,04,033,,17,09,238,43,21,71,354,48*7E
$GLGSV,3,1,10,69,10,131,36,70,39,191,35,71,24,249,45,73,14,023,28*68
$GNGLL,2237.48017,S,04928.05068,W,145532.00,A,D*7B
$GNRMC,145533.00,A,2237.48017,S,04928.05068,W,0.013,,040423,,,D*60
$GPGSV,4,1,16,01,72,231,52,03,37,210,48,04,42,276,48,08,12,345,*74
$GLGSV,3,1,10,69,10,131,36,70,39,191,35,71,24,249,45,73,14,023,26*66
$GNGLL,2237.48017,S,04928.05068,W,145533.00,A,D*7A
$GNRMC,145534.00,A,2237.48016,S,04928.05067,W,0.006,,040423,,,D*6D
$GPGSV,4,1,16,01,72,231,52,03,37,210,48,04,42,276,48,08,12,345,*74
$GLGSV,3,1,10,69,10,131,36,70,39,191,35,71,24,249,44,73,14,023,24*65
$GNGLL,2237.48016,S,04928.05067,W,145534.00,A,D*73
$GNRMC,145535.00,A,2237.48015,S,04928.05065,W,0.012,,040423,,,D*68
$GPGSV,4,2,16,09,12,292,48,16,04,033,,17,09,238,43,21,71,354,48*7E
$GLGSV,3,1,10,69,10,131,35,70,39,191,35,71,24,249,44,73,14,023,22*60
$GNGLL,2237.48015,S,04928.05065,W,145535.00,A,D*73
$GNRMC,145536.00,A,2237.48015,S,04928.05064,W,0.025,,040423,,,D*6E
$GPGSV,4,1,16,01,72,231,52,03,37,210,48,04,42,276,49,08,12,345,*75
$GLGSV,3,1,10,69,10,131,37,70,39,191,35,71,24,249,44,73,14,023,20*60
$GNGLL,2237.48015,S,04928.05064,W,145536.00,A,D*71
$GNRMC,145537.00,A,2237.48015,S,04928.05063,W,0.004,,040423,,,D*6B
$GPGSV,4,2,16,09,12,292,48,16,04,033,,17,09,238,44,21,71,354,49*78
$GLGSV,3,1,10,69,10,131,37,70,39,191,35,71,24,249,44,73,14,023,22*62
$GNGLL,2237.48015,S,04928.05063,W,145537.00,A,D*77
$GNRMC,145538.00,A,2237.48014,S,04928.05062,W,0.017,,040423,,,D*66
$GPGSV,4,2,16,09,12,292,48,16,04,033,,17,09,238,44,21,71,354,48*79
$GLGSV,3,1,10,69,10,131,37,70,39,191,35,71,24,249,44,73,14,023,23*63
$GNGLL,2237.48014,S,04928.05062,W,145538.00,A,D*78
$GNRMC,145539.00,A,2237.48014,S,04928.05061,W,0.006,,040423,,,D*64
$GPGSV,4,1,16,01,72,231,52,03,37,210,48,04,42,276,49,08,12,345,*75
$GLGSV,3,1,10,69,10,131,37,70,39,191,35,71,24,249,44,73,14,023,25*65
$GNGLL,2237.48014,S,04928.05061,W,145539.00,A,D*7A
$GNRMC,145540.00,A,2237.48013,S,04928.05059,W,0.016,,040423,,,D*67
$GPGSV,4,2,16,09,12,292,47,16,04,033,,17,09,238,44,21,71,354,49*77
$GLGSV,3,1,10,69,10,131,37,70,39,191,36,71,24,249,44,73,14,023,26*65
$GNGLL,2237.48013,S,04928.05059,W,145540.00,A,D*78
$GNRMC,145541.00,A,2237.48012,S,04928.05058,W,0.004,,040423,,,D*65
$GPGSV,4,1,16,01,72,231,52,03,37,210,48,04,42,276,48,08,12,345,*74
$GLGSV,3,1,10,69,09,130,36,70,39,191,35,71,24,249,44,73,14,023,25*6D
$GNGLL,2237.48012,S,04928.05058,W,145541.00,A,D*79
$GNRMC,145542.00,A,2237.48011,S,04928.05056,W,0.004,,040423,,,D*6B
$GPGSV,4,1,16,01,72,231,52,03,37,210,48,04,42,276,48,08,12,345,*74
$GLGSV,3,1,10,69,09,130,36,70,39,190,35,71,24,249,44,73,14,023,24*6D
$GNGLL,2237.48011,S,04928.05056,W,145542.00,A,D*77
$GNRMC,145543.00,A,2237.48010,S,04928.05055,W,0.023,,040423,,,D*6D
$GPGSV,4,2,16,09,12,292,47,16,04,033,,17,09,238,43,21,71,354,49*70
$GLGSV,3,1,10,69,09,130,36,70,39,190,36,71,24,249,44,73,14,023,25*6F
$GNGLL,2237.48010,S,04928.05055,W,145543.00,A,D*74
$GNRMC,145544.00,A,2237.48009,S,04928.05054,W,0.004,,040423,,,D*66
$GPGSV,4,3,16,22,,,50,26,11,066,29,28,28,133,50,31,44,117,51*46
$GLGSV,3,1,10,69,09,130,37,70,39,190,35,71,24,249,44,73,14,023,26*6E
$GNGLL,2237.48009,S,04928.05054,W,145544.00,A,D*7A
$GNRMC,145545.00,A,2237.48009,S,04928.05054,W,0.009,,040423,,,D*6A
$GPGSV,4,2,16,09,12,292,47,16,04,033,,17,09,238,43,21,71,354,49*70
$GLGSV,3,1,10,69,09,130,38,70,39,190,36,71,24,249,44,73,15,023,26*63
$GNGLL,2237.48009,S,04928.05054,W,145545.00,A,D*7B
$GNRMC,145546.00,A,2237.48010,S,04928.05053,W,0.030,,040423,,,D*6C
$GPGSV,4,1,16,01,72,231,52,03,37,210,48,04,42,276,49,08,12,345,31*77
$GLGSV,3,1,10,69,09,130,38,70,39,190,36,71,24,249,44,73,15,023,26*63
$GNGLL,2237.48010,S,04928.05053,W,145546.00,A,D*77
$GNRMC,145547.00,A,2237.48010,S,04928.05053,W,0.002,,040423,,,D*6C
$GPGSV,4,1,16,01,72,231,52,03,37,210,47,04,42,276,49,08,12,345,29*71
$GLGSV,3,1,10,69,09,130,38,70,39,190,36,71,24,249,44,73,15,023,26*63
$GNGLL,2237.48010,S,04928.05053,W,145547.00,A,D*76
$GNRMC,145548.00,A,2237.48010,S,04928.05053,W,0.014,,040423,,,D*64
$GPGSV,4,2,16,09,12,292,47,16,04,033,,17,09,238,43,21,71,354,49*70
$GLGSV,3,1,10,69,09,130,38,70,39,190,35,71,24,249,44,73,15,023,28*6E
$GNGLL,2237.48010,S,04928.05053,W,145548.00,A,D*79
$GNRMC,145549.00,A,2237.48011,S,04928.05053,W,0.009,,040423,,,D*68
$GPGSV,4,2,16,09,12,292,47,16,04,033,,17,09,238,44,21,71,354,49*77
$GLGSV,3,1,10,69,09,130,39,70,39,190,35,71,24,249,44,73,15,023,27*60
$GNGLL,2237.48011,S,04928.05053,W,145549.00,A,D*79
$GNRMC,145550.00,A,2237.48013,S,04928.05054,W,0.019,,040423,,,D*64
$GPGSV,4,1,16,01,72,231,52,03,37,210,47,04,42,276,49,08,12,345,*7A
$GLGSV,3,1,10,69,09,130,39,70,39,190,36,71,24,249,44,73,15,023,24*60
$GNGLL,2237.48013,S,04928.05054,W,145550.00,A,D*74
$GNRMC,145551.00,A,2237.48014,S,04928.05054,W,0.007,,040423,,,D*6D
$GPGSV,4,1,16,01,72,231,52,03,37,210,47,04,42,276,48,08,12,345,29*70
$GLGSV,3,1,10,69,09,130,39,70,39,190,35,71,24,249,44,73,15,023,22*65
$GNGLL,2237.48014,S,04928.05054,W,145551.00,A,D*72
$GNRMC,145552.00,A,2237.48015,S,04928.05054,W,0.022,,040423,,,D*68
$GPGSV,4,1,16,01,72,231,52,03,37,210,48,04,42,276,49,08,12,345,30*76
$GLGSV,3,1,10,69,09,130,38,70,39,190,35,71,24,249,44,73,15,023,25*63
$GNGLL,2237.48015,S,04928.05054,W,145552.00,A,D*70
$GNRMC,145553.00,A,2237.48016,S,04928.05055,W,0.022,,040423,,,D*6B
$GPGSV,4,2,16,09,12,292,48,16,04,033,,17,09,238,44,21,71,354,48*79
$GLGSV,3,1,10,69,09,130,37,70,39,190,35,71,24,249,43,73,15,023,27*69
$GNGLL,2237.48016,S,04928.05055,W,145553.00,A,D*73
$GNRMC,145554.00,A,2237.48018,S,04928.05055,W,0.010,,040423,,,D*63
$GPGSV,4,2,16,09,12,292,48,16,04,033,,17,09,238,44,21,71,354,49*78
$GLGSV,3,1,10,69,09,130,36,70,39,190,36,71,24,249,43,73,15,023,28*64
$GNGLL,2237.48018,S,04928.05055,W,145554.00,A,D*7A
$GNRMC,145555.00,A,2237.48020,S,04928.05055,W,0.023,,040423,,,D*69
$GPGSV,4,1,16,01,72,231,52,03,37,210,47,04,42,276,48,08,12,345,30*78
$GLGSV,3,1,10,69,09,130,36,70,39,190,36,71,24,249,44,73,15,023,29*62
$GNGLL,2237.48020,S,04928.05055,W,145555.00,A,D*70
$GNRMC,145556.00,A,2237.48020,S,04928.05055,W,0.027,,040423,,,D*6E
$GPGSV,4,1,16,01,72,231,51,03,37,210,47,04,42,276,49,08,12,345,29*72
$GLGSV,3,1,10,69,09,130,34,70,39,190,34,71,24,249,43,73,15,023,30*6D
$GNGLL,2237.48020,S,04928.05055,W,145556.00,A,D*73
$GNRMC,145557.00,A,2237.48021,S,04928.05055,W,0.014,,040423,,,D*6E
$GPGSV,4,1,16,01,72,231,51,03,37,210,47,04,42,276,49,08,12,345,28*73
$GLGSV,3,1,10,69,09,130,34,70,39,190,35,71,24,249,43,73,15,023,29*64
$GNGLL,2237.48021,S,04928.05055,W,145557.00,A,D*73
$GNRMC,145558.00,A,2237.48021,S,04928.05055,W,0.018,,040423,,,D*6D
$GPGSV,4,1,16,01,72,231,52,03,37,210,47,04,42,276,49,08,12,345,*7A
$GLGSV,3,1,10,69,09,130,35,70,39,190,34,71,24,249,42,73,15,023,29*65
$GNGLL,2237.48021,S,04928.05055,W,145558.00,A,D*7C
$GNRMC,145559.00,A,2237.48020,S,04928.05055,W,0.006,,040423,,,D*62
$GPGSV,4,1,16,01,72,231,52,03,37,210,47,04,42,276,48,08,12,345,*7B
$GLGSV,3,1,10,69,09,130,37,70,39,190,35,71,24,249,43,73,15,023,29*67
$GNGLL,2237.48020,S,04928.05055,W,145559.00,A,D*7C
$GNRMC,145600.00,A,2237.48019,S,04928.05055,W,0.041,,040423,,,D*64
$GPGSV,4,1,16,01,72,231,52,03,37,210,47,04,42,276,48,08,12,345,*7B
$GLGSV,3,1,10,69,09,130,37,70,39,190,35,71,24,249,43,73,15,023,29*67
$GNGLL,2237.48019,S,04928.05055,W,145600.00,A,D*79
$GNRMC,145601.00,A,2237.48019,S,04928.05055,W,0.016,,040423,,,D*67
$GPGSV,4,1,16,01,72,231,52,03,37,210,47,04,42,276,49,08,12,345,29*71
$GLGSV,3,1,10,69,09,130,38,70,39,190,36,71,24,249,43,73,15,023,28*6A
$GNGLL,2237.48019,S,04928.05055,W,145601.00,A,D*78
$GNRMC,145602.00,A,2237.48019,S,04928.05055,W,0.010,,040423,,,D*62
$GPGSV,4,2,16,09,12,292,48,16,04,033,,17,09,238,43,21,71,354,49*7F
$GLGSV,3,1,10,69,09,130,39,70,39,190,36,71,24,249,43,73,15,023,27*64
$GNGLL,2237.48019,S,04928.05055,W,145602.00,A,D*7B
$GNRMC,145603.00,A,2237.48018,S,04928.05054,W,0.023,,040423,,,D*63
$GPGSV,4,2,16,09,12,292,48,16,04,033,,17,09,238,43,21,71,354,49*7F
$GLGSV,3,1,10,69,09,130,39,70,39,190,36,71,24,249,42,73,15,023,28*6A
$GNGLL,2237.48018,S,04928.05054,W,145603.00,A,D*7A
$GNRMC,145604.00,A,2237.48017,S,04928.05054,W,0.021,,040423,,,D*69
$GPGSV,4,1,16,01,73,233,52,03,37,209,47,04,42,276,49,08,12,345,*71
$GLGSV,3,1,10,69,09,130,39,70,39,190,35,71,24,249,42,73,15,023,29*68
$GNGLL,2237.48017,S,04928.05054,W,145604.00,A,D*72
$GNRMC,145605.00,A,2237.48016,S,04928.05054,W,0.007,,040423,,,D*6D
$GPGSV,4,2,16,09,12,292,48,16,04,033,,17,09,238,44,21,71,354,49*78
$GLGSV,3,1,10,69,09,130,38,70,39,190,35,71,24,249,43,73,15,023,30*60
$GNGLL,2237.48016,S,04928.05054,W,145605.00,A,D*72
$GNRMC,145606.00,A,2237.48016,S,04928.05054,W,0.004,,040423,,,D*6D
$GPGSV,4,1,16,01,73,233,52,03,37,209,47,04,43,276,49,08,12,345,29*7B
$GLGSV,3,1,10,69,09,130,39,70,39,190,36,71,24,249,43,73,15,023,30*62
$GNGLL,2237.48016,S,04928.05054,W,145606.00,A,D*71
$GNRMC,145607.00,A,2237.48016,S,04928.05053,W,0.007,,040423,,,D*68
$GPGSV,4,1,16,01,73,233,52,03,37,209,47,04,43,276,49,08,12,345,*70
$GLGSV,3,1,10,69,09,130,39,70,39,190,36,71,24,249,43,73,15,023,29*6A
$GNGLL,2237.48016,S,04928.05053,W,145607.00,A,D*77
$GNRMC,145608.00,A,2237.48016,S,04928.05053,W,0.002,,040423,,,D*62
$GPGSV,4,1,16,01,73,233,52,03,37,209,47,04,43,276,49,08,12,345,*70
$GLGSV,3,1,10,69,09,130,39,70,39,190,36,71,24,249,43,73,15,023,28*6B
$GNGLL,2237.48016,S,04928.05053,W,145608.00,A,D*78
$GNRMC,145609.00,A,2237.48015,S,04928.05053,W,0.009,,040423,,,D*6B
$GPGSV,4,1,16,01,73,233,52,03,37,209,47,04,43,276,49,08,12,346,*73
$GLGSV,3,1,10,69,09,130,37,70,39,190,36,71,24,249,43,73,15,023,27*6A
$GNGLL,2237.48015,S,04928.05053,W,145609.00,A,D*7A
$GNRMC,145610.00,A,2237.48015,S,04928.05053,W,0.003,,040423,,,D*69
$GPGSV,4,1,16,01,73,233,52,03,37,209,47,04,43,276,49,08,12,346,*73
$GLGSV,3,1,10,69,09,130,38,70,39,190,36,71,24,249,43,73,15,023,27*65
$GNGLL,2237.48015,S,04928.05053,W,145610.00,A,D*72
$GNRMC,145611.00,A,2237.48014,S,04928.05053,W,0.011,,040423,,,D*6A
$GPGSV,4,2,16,09,13,291,49,16,04,033,,17,09,238,44,21,71,354,48*7A
$GLGSV,3,1,10,69,09,130,38,70,39,190,36,71,24,249,43,73,15,023,26*64
$GNGLL,2237.48014,S,04928.05053,W,145611.00,A,D*72
$GNRMC,145612.00,A,2237.48014,S,04928.05053,W,0.002,,040423,,,D*6B
$GPGSV,4,2,16,09,13,291,49,16,04,033,,17,09,238,44,21,71,354,49*7B
$GLGSV,3,1,10,69,09,130,37,70,39,190,35,71,24,249,44,73,15,023,26*6F
$GNGLL,2237.48014,S,04928.05053,W,145612.00,A,D*71
$GNRMC,145613.00,A,2237.48014,S,04928.05053,W,0.008,,040423,,,D*60
$GPGSV,4,1,16,01,73,233,52,03,37,209,47,04,43,276,49,08,12,346,*73
$GLGSV,3,1,10,69,09,130,37,70,39,190,36,71,24,249,43,73,15,023,26*6B
$GNGLL,2237.48014,S,04928.05053,W,145613.00,A,D*70
$GNRMC,145614.00,A,2237.48013,S,04928.05052,W,0.008,,040423,,,D*61
$GPGSV,4,1,16,01,73,233,52,03,37,209,47,04,43,276,49,08,12,346,*73
$GLGSV,3,1,10,69,09,130,37,70,39,190,36,71,24,249,43,73,15,023,26*6B
$GNGLL,2237.48013,S,04928.05052,W,145614.00,A,D*71
$GNGSA,A,3,84,70,69,71,79,86,80,73,,,,,1.15,0.60,0.98*10
$GPGSV,4,1,16,01,73,233,52,03,37,209,48,04,43,276,49,08,12,346,*7C
$GLGSV,3,1,10,69,09,130,36,70,39,190,36,71,24,249,43,73,15,023,27*6B
$GNGLL,2237.48013,S,04928.05052,W,145615.00,A,D*70
$GNRMC,145616.00,A,2237.48013,S,04928.05051,W,0.017,,040423,,,D*6E
$GPGSV,4,1,16,01,73,233,52,03,37,209,48,04,43,276,49,08,12,346,*7C
$GLGSV,3,1,10,69,09,130,36,70,39,190,35,71,24,249,43,73,15,023,27*68
$GNGLL,2237.48013,S,04928.05051,W,145616.00,A,D*70
$GNRMC,145617.00,A,2237.48013,S,04928.05051,W,0.010,,040423,,,D*68
$GPGSV,4,1,16,01,73,233,52,03,37,209,48,04,43,276,49,08,12,346,*7C
$GLGSV,3,1,10,69,09,130,35,70,39,190,36,71,24,249,43,73,15,023,26*69
$GNGLL,2237.48013,S,04928.05051,W,145617.00,A,D*71
$GNRMC,145618.00,A,2237.48014,S,04928.05051,W,0.009,,040423,,,D*68
$GPGSV,4,1,16,01,73,233,51,03,37,209,48,04,43,276,49,08,12,346,*7F
$GLGSV,3,1,10,69,09,130,35,70,39,190,36,71,24,249,42,73,15,023,24*6A
$GNGLL,2237.48014,S,04928.05051,W,145618.00,A,D*79
$GNRMC,145619.00,A,2237.48015,S,04928.05052,W,0.011,,040423,,,D*62
$GPGSV,4,1,16,01,73,233,51,03,37,209,48,04,43,276,49,08,12,346,*7F
$GLGSV,3,1,10,69,09,130,35,70,39,190,35,71,24,249,42,73,15,023,23*6E
$GNGLL,2237.48015,S,04928.05052,W,145619.00,A,D*7A
$GNRMC,145620.00,A,2237.48015,S,04928.05052,W,0.001,,040423,,,D*69
$GPGSV,4,1,16,01,73,233,52,03,37,209,48,04,43,276,49,08,12,346,*7C
$GLGSV,3,1,10,69,09,130,35,70,39,190,35,71,24,249,43,73,15,023,24*68
$GNGLL,2237.48015,S,04928.05052,W,145620.00,A,D*70
$GNRMC,145621.00,A,2237.48016,S,04928.05052,W,0.004,,040423,,,D*6E
$GPGSV,4,1,16,01,73,233,52,03,37,209,48,04,43,276,49,08,12,346,*7C
$GLGSV,3,1,10,69,09,130,34,70,39,190,36,71,24,249,43,73,15,023,27*69
$GNGLL,2237.48016,S,04928.05052,W,145621.00,A,D*72
$GNRMC,145622.00,A,2237.48016,S,04928.05052,W,0.000,,040423,,,D*69
$GPGSV,4,1,16,01,73,233,52,03,37,209,48,04,43,276,49,08,12,346,*7C
$GLGSV,3,1,10,69,09,130,35,70,39,190,36,71,24,249,42,73,15,023,29*67
$GNGLL,2237.48016,S,04928.05052,W,145622.00,A,D*71
$GNRMC,145623.00,A,2237.48016,S,04928.05051,W,0.007,,040423,,,D*6C
$GPGSV,4,1,16,01,73,233,52,03,37,209,48,04,43,276,49,08,12,346,*7C
$GLGSV,3,1,10,69,09,130,35,70,39,190,36,71,24,249,42,73,15,023,31*6E
$GNGLL,2237.48016,S,04928.05051,W,145623.00,A,D*73
$GNRMC,145624.00,A,2237.48016,S,04928.05051,W,0.005,,040423,,,D*69
$GPGSV,4,2,16,09,13,291,48,16,04,034,,17,09,239,45,21,71,355,48*7D
$GLGSV,3,1,10,69,09,130,35,70,39,190,35,71,24,249,42,73,15,023,31*6D
$GNGLL,2237.48016,S,04928.05051,W,145624.00,A,D*74
$GNRMC,145625.00,A,2237.48017,S,04928.05051,W,0.019,,040423,,,D*64
$GPGSV,4,1,16,01,73,233,52,03,37,209,48,04,43,276,49,08,12,346,*7C
$GLGSV,3,1,10,69,09,130,35,70,39,190,35,71,24,249,41,73,15,023,32*6D
$GNGLL,2237.48017,S,04928.05051,W,145625.00,A,D*74
$GNRMC,145626.00,A,2237.48018,S,04928.05050,W,0.010,,040423,,,D*60
$GPGSV,4,1,16,01,73,233,52,03,37,209,48,04,43,276,49,08,12,346,*7C
$GLGSV,3,1,10,69,09,130,36,70,39,190,35,71,24,249,42,73,15,023,31*6E
$GNGLL,2237.48018,S,04928.05050,W,145626.00,A,D*79
$GNRMC,145627.00,A,2237.48019,S,04928.05050,W,0.012,,040423,,,D*62
$GPGSV,4,2,16,09,13,291,48,16,04,034,,17,09,239,45,21,71,355,48*7D
$GLGSV,3,1,10,69,09,130,37,70,39,190,36,71,24,249,42,73,15,023,30*6D
$GNGLL,2237.48019,S,04928.05050,W,145627.00,A,D*79
$GNRMC,145628.00,A,2237.48019,S,04928.05050,W,0.009,,040423,,,D*67
$GPGSV,4,1,16,01,73,233,52,03,37,209,48,04,43,276,49,08,12,346,*7C
$GLGSV,3,1,10,69,09,130,37,70,39,190,36,71,24,249,42,73,15,023,28*64
$GNGLL,2237.48019,S,04928.05050,W,145628.00,A,D*76
$GNRMC,145629.00,A,2237.48020,S,04928.05049,W,0.016,,040423,,,D*6A
$GPGSV,4,2,16,09,13,291,48,16,04,034,,17,09,239,44,21,71,355,48*7C
$GLGSV,3,1,10,69,09,130,37,70,39,190,36,71,24,249,43,73,15,023,28*65
$GNGLL,2237.48020,S,04928.05049,W,145629.00,A,D*75
$GPGSV,4,3,16,22,,,50,26,11,066,,28,28,133,50,31,44,117,51*4D
$GLGSV,3,1,10,69,09,130,37,70,39,190,35,71,24,249,42,73,15,023,27*68
$GNGLL,2237.48020,S,04928.05049,W,145630.00,A,D*7D
$GNRMC,145631.00,A,2237.48021,S,04928.05049,W,0.009,,040423,,,D*6C
$GPGSV,4,1,16,01,73,233,52,03,37,209,48,04,43,276,49,08,12,346,31*7E
$GLGSV,3,1,10,69,09,130,37,70,39,190,35,71,24,249,42,73,15,023,27*68
$GNGLL,2237.48021,S,04928.05049,W,145631.00,A,D*7D
$GNRMC,145632.00,A,2237.48022,S,04928.05049,W,0.004,,040423,,,D*61
$GPGSV,4,1,16,01,73,233,52,03,37,209,48,04,43,276,49,08,12,346,30*7F
$GLGSV,3,1,10,69,09,130,35,70,39,190,35,71,24,249,43,73,15,023,28*64
$GNGLL,2237.48022,S,04928.05049,W,145632.00,A,D*7D
$GNRMC,145633.00,A,2237.48022,S,04928.05048,W,0.015,,040423,,,D*61
$GPGSV,4,1,16,01,73,233,52,03,37,209,48,04,43,276,49,08,12,346,29*77
$GLGSV,3,1,10,69,09,130,36,70,39,190,36,71,24,249,43,73,15,023,29*65
$GNGLL,2237.48022,S,04928.05048,W,145633.00,A,D*7D
$GNRMC,145634.00,A,2237.48022,S,04928.05048,W,0.005,,040423,,,D*67
$GPGSV,4,1,16,01,73,233,52,03,37,209,48,04,43,276,48,08,12,346,29*76
$GLGSV,3,1,10,69,09,130,36,70,39,190,36,71,24,249,43,73,15,023,29*65
$GNGLL,2237.48022,S,04928.05048,W,145634.00,A,D*7A
$GNRMC,145635.00,A,2237.48022,S,04928.05049,W,0.008,,040423,,,D*6A
$GPGSV,4,1,16,01,73,233,52,03,37,209,48,04,43,276,48,08,12,346,28*77
$GLGSV,3,1,10,69,09,130,37,70,39,190,36,71,24,249,43,73,15,023,29*64
$GNGLL,2237.48022,S,04928.05049,W,145635.00,A,D*7A
$GNRMC,145636.00,A,2237.48023,S,04928.05049,W,0.006,,040423,,,D*66
$GPGSV,4,1,16,01,73,233,52,03,37,209,48,04,43,276,48,08,12,346,*7D
$GLGSV,3,1,10,69,09,130,36,70,39,190,36,71,24,249,42,73,15,023,30*6C
$GNGLL,2237.48023,S,04928.05049,W,145636.00,A,D*78
$GNRMC,145637.00,A,2237.48023,S,04928.05049,W,0.012,,040423,,,D*62
$GPGSV,4,1,16,01,73,233,52,03,37,209,48,04,43,276,49,08,12,346,29*77
$GLGSV,3,1,10,69,09,130,36,70,39,190,36,71,24,249,43,73,15,023,31*6C
$GNGLL,2237.48023,S,04928.05049,W,145637.00,A,D*79
$GNRMC,145638.00,A,2237.48023,S,04928.05048,W,0.006,,040423,,,D*69
$GPGSV,4,1,16,01,73,233,52,03,37,209,48,04,43,276,49,08,12,346,28*76
$GLGSV,3,1,10,69,09,130,36,70,39,190,36,71,24,249,43,73,15,023,31*6C
$GNGLL,2237.48023,S,04928.05048,W,145638.00,A,D*77
$GNRMC,145639.00,A,2237.48024,S,04928.05048,W,0.015,,040423,,,D*6D
$GPGSV,4,1,16,01,73,233,52,03,37,209,48,04,43,276,49,08,12,346,30*7F
$GLGSV,3,1,10,69,09,130,36,70,39,190,36,71,24,249,42,73,15,023,31*6D
$GNGLL,2237.48024,S,04928.05048,W,145639.00,A,D*71
$GNRMC,145640.00,A,2237.48024,S,04928.05048,W,0.007,,040423,,,D*60
$GPGSV,4,1,16,01,73,233,52,03,37,209,48,04,43,276,49,08,12,346,*7C
$GLGSV,3,1,10,69,09,130,36,70,39,190,36,71,24,249,42,73,15,023,30*6C
$GNGLL,2237.48024,S,04928.05048,W,145640.00,A,D*7F
$GNRMC,145641.00,A,2237.48024,S,04928.05048,W,0.028,,040423,,,D*6C
$GPGSV,4,2,16,09,13,291,48,16,04,034,,17,09,239,45,21,71,355,48*7D
$GLGSV,3,1,10,69,09,130,35,70,39,190,36,71,24,249,43,73,15,023,29*66
$GNGLL,2237.48024,S,04928.05048,W,145641.00,A,D*7E
$GNGLL,2237.47959,S,04928.05080,W,150314.00,A,D*77
$GNVTG,,T,,M,0.020,N,0.037,K,D*3E
$GNGGA,150315.00,2237.47959,S,04928.05080,W,2,12,0.62,577.4,M,-5.2,M,,0000*59
$GNGSA,A,3,21,04,28,01,03,31,17,09,,,,,1.22,0.62,1.04*1E
$GPGSV,4,1,16,01,75,241,53,03,39,207,48,04,44,272,48,08,10,348,*70
$GLGSV,3,1,10,69,08,127,37,70,38,185,35,71,25,244,42,73,18,025,21*6B
$GNGLL,2237.47959,S,04928.05080,W,150315.00,A,D*76
$GNRMC,150316.00,A,2237.47959,S,04928.05080,W,0.006,,040423,,,D*6B
$GNGGA,150316.00,2237.47959,S,04928.05080,W,2,12,0.62,577.4,M,-5.2,M,,0000*5A
$GNGSA,A,3,21,04,28,01,03,31,17,09,,,,,1.22,0.62,1.04*1E
$GPGSV,4,1,16,01,75,241,53,03,39,207,48,04,44,272,48,08,10,348,*70
$GLGSV,3,1,10,69,08,127,37,70,38,185,36,71,25,244,42,73,18,025,21*68
$GNGLL,2237.47959,S,04928.05080,W,150316.00,A,D*75
$GNRMC,150317.00,A,2237.47960,S,04928.05081,W,0.014,,040423,,,D*62
$GNGGA,150317.00,2237.47960,S,04928.05081,W,2,12,0.62,577.4,M,-5.2,M,,0000*50
$GNGSA,A,3,21,04,28,01,03,31,17,09,,,,,1.22,0.62,1.04*1E
$GPGSV,4,1,16,01,75,241,53,03,39,207,47,04,44,272,48,08,10,348,*7F
$GLGSV,3,1,10,69,08,127,37,70,38,185,36,71,25,244,42,73,18,025,21*68
$GNGLL,2237.47960,S,04928.05081,W,150317.00,A,D*7F
$GNRMC,150318.00,A,2237.47960,S,04928.05081,W,0.009,,040423,,,D*61
$GNGGA,150318.00,2237.47960,S,04928.05081,W,2,12,0.62,577.4,M,-5.2,M,,0000*5F
$GNGSA,A,3,21,04,28,01,03,31,17,09,,,,,1.22,0.62,1.04*1E
$GPGSV,4,1,16,01,75,241,53,03,39,207,47,04,44,272,48,08,10,348,*7F
$GLGSV,3,1,10,69,08,127,37,70,38,185,36,71,25,244,42,73,18,025,20*69
$GNGLL,2237.47960,S,04928.05081,W,150318.00,A,D*70
$GNRMC,150319.00,A,2237.47959,S,04928.05081,W,0.008,,040423,,,D*6B
$GNGGA,150319.00,2237.47959,S,04928.05081,W,2,12,0.62,577.4,M,-5.2,M,,0000*54
$GNGSA,A,3,21,04,28,01,03,31,17,09,,,,,1.22,0.62,1.04*1E
$GPGSV,4,1,16,01,75,241,53,03,39,207,47,04,44,272,48,08,10,348,*7F
$GLGSV,3,1,10,69,08,127,37,70,38,185,36,71,25,244,42,73,18,025,19*63
$GNGLL,2237.47959,S,04928.05081,W,150319.00,A,D*7B
$GNRMC,150320.00,A,2237.47959,S,04928.05081,W,0.022,,040423,,,D*69
$GPGSV,4,2,16,09,14,289,46,16,05,036,,17,10,241,46,21,67,357,48*7F
$GLGSV,3,1,10,69,08,127,37,70,38,185,35,71,25,244,42,73,18,025,17*6E
$GNGLL,2237.47959,S,04928.05081,W,150320.00,A,D*71
$GNRMC,150321.00,A,2237.47959,S,04928.05081,W,0.015,,040423,,,D*6C
$GPGSV,4,2,16,09,14,289,46,16,05,036,,17,10,241,46,21,67,357,48*7F
$GLGSV,3,1,10,69,08,127,37,70,38,185,35,71,25,244,42,73,18,025,15*6C
$GNGLL,2237.47959,S,04928.05081,W,150321.00,A,D*70
$GNRMC,150322.00,A,2237.47959,S,04928.05081,W,0.006,,040423,,,D*6D
$GPGSV,4,2,16,09,14,289,47,16,05,036,,17,10,241,46,21,67,357,47*71
$GLGSV,3,1,10,69,08,127,36,70,38,185,35,71,25,244,42,73,18,025,14*6C
$GNGLL,2237.47959,S,04928.05081,W,150322.00,A,D*73
$GNGSA,A,3,84,70,69,71,79,86,80,73,,,,,1.22,0.62,1.04*12
$GPGSV,4,1,16,01,75,243,53,03,39,206,48,04,44,271,48,08,10,348,26*74
$GLGSV,3,1,10,69,08,127,36,70,38,185,35,71,25,244,42,73,18,025,14*6C
$GNGLL,2237.47959,S,04928.05081,W,150323.00,A,D*72
$GNRMC,150324.00,A,2237.47959,S,04928.05081,W,0.019,,040423,,,D*65
$GPGSV,4,1,16,01,75,243,53,03,39,206,48,04,44,271,48,08,10,348,26*74
$GLGSV,3,1,10,69,08,127,37,70,38,185,35,71,25,244,43,73,18,025,16*6E
$GNGLL,2237.47959,S,04928.05081,W,150324.00,A,D*75
$GNRMC,150325.00,A,2237.47959,S,04928.05081,W,0.006,,040423,,,D*6A
$GPGSV,4,2,16,09,14,289,47,16,05,036,,17,10,241,45,21,67,357,48*7D
$GLGSV,3,1,10,69,08,127,36,70,38,185,35,71,25,244,43,73,18,025,15*6C
$GNGLL,2237.47959,S,04928.05081,W,150325.00,A,D*74
$GNRMC,150326.00,A,2237.47960,S,04928.05081,W,0.002,,040423,,,D*67
$GPGSV,4,1,16,01,75,243,53,03,39,206,48,04,44,271,48,08,10,348,25*77
$GLGSV,3,1,10,69,08,127,36,70,38,185,35,71,25,244,43,73,18,025,16*6F
$GNGLL,2237.47960,S,04928.05081,W,150326.00,A,D*7D
$GNRMC,150327.00,A,2237.47960,S,04928.05081,W,0.016,,040423,,,D*63
$GPGSV,4,2,16,09,14,289,47,16,05,036,,17,10,241,46,21,67,357,48*7E
$GLGSV,3,1,10,69,08,127,37,70,38,185,35,71,25,244,43,73,18,025,16*6E
$GNGLL,2237.47960,S,04928.05081,W,150327.00,A,D*7C
$GNRMC,150328.00,A,2237.47961,S,04928.05081,W,0.006,,040423,,,D*6C
$GPGSV,4,3,16,22,,,51,26,12,069,,28,26,135,51,31,43,121,52*48
$GLGSV,3,1,10,69,08,127,37,70,38,185,35,71,25,244,43,73,18,025,18*60
$GNGLL,2237.47961,S,04928.05081,W,150328.00,A,D*72
$GNRMC,150329.00,A,2237.47962,S,04928.05082,W,0.014,,040423,,,D*6E
$GPGSV,4,2,16,09,14,289,47,16,05,036,,17,10,241,45,21,67,357,48*7D
$GLGSV,3,1,10,69,08,127,36,70,38,185,35,71,25,244,43,73,18,025,21*6B
$GNGLL,2237.47962,S,04928.05082,W,150329.00,A,D*73
$GNRMC,150330.00,A,2237.47962,S,04928.05082,W,0.003,,040423,,,D*60
$GPGSV,4,1,16,01,75,243,53,03,39,206,48,04,44,271,47,08,10,348,22*7F
$GLGSV,3,1,10,69,08,127,36,70,38,185,34,71,25,244,43,73,18,025,23*68
$GNGLL,2237.47962,S,04928.05082,W,150330.00,A,D*7B
$GNGSA,A,3,84,70,69,71,79,86,80,73,,,,,1.17,0.60,1.01*13
$GPGSV,4,1,16,01,75,243,53,03,39,206,48,04,44,271,48,08,10,348,22*70
$GLGSV,3,1,10,69,08,127,35,70,38,185,34,71,25,244,43,73,18,025,23*6B
$GNGLL,2237.47963,S,04928.05082,W,150331.00,A,D*7B
$GNRMC,150332.00,A,2237.47963,S,04928.05082,W,0.004,,040423,,,D*64
$GPGSV,4,1,16,01,75,243,53,03,39,206,48,04,44,271,48,08,10,348,21*73
$GLGSV,3,1,10,69,08,127,35,70,38,185,35,71,25,244,43,73,18,025,23*6A
$GNGLL,2237.47963,S,04928.05082,W,150332.00,A,D*78
$GNRMC,150333.00,A,2237.47964,S,04928.05083,W,0.002,,040423,,,D*65
$GPGSV,4,1,16,01,75,243,53,03,39,206,48,04,44,271,47,08,10,348,18*76
$GLGSV,3,1,10,69,08,127,35,70,38,185,35,71,25,244,42,73,18,025,23*6B
$GNGLL,2237.47964,S,04928.05083,W,150333.00,A,D*7F
$GNRMC,150334.00,A,2237.47966,S,04928.05083,W,0.009,,040423,,,D*6B
$GPGSV,4,1,16,01,75,243,53,03,39,206,47,04,44,271,48,08,10,348,19*77
$GLGSV,3,1,10,69,08,127,36,70,38,185,35,71,25,244,42,73,18,025,24*6F
$GNGLL,2237.47966,S,04928.05083,W,150334.00,A,D*7A
$GNRMC,150335.00,A,2237.47967,S,04928.05084,W,0.005,,040423,,,D*60
$GPGSV,4,1,16,01,75,243,53,03,39,206,47,04,44,271,48,08,10,348,17*79
$GLGSV,3,1,10,69,08,127,35,70,38,185,35,71,25,244,42,73,18,025,25*6D
$GNGLL,2237.47967,S,04928.05084,W,150335.00,A,D*7D
$GNRMC,150336.00,A,2237.47968,S,04928.05084,W,0.014,,040423,,,D*6C
$GPGSV,4,2,16,09,14,289,47,16,05,037,,17,10,242,46,21,67,357,49*7D
$GLGSV,3,1,10,69,08,127,34,70,38,185,35,71,25,244,42,73,18,025,26*6F
$GNGLL,2237.47968,S,04928.05084,W,150336.00,A,D*71
$GNRMC,150337.00,A,2237.47970,S,04928.05085,W,0.024,,040423,,,D*66
$GPGSV,4,2,16,09,14,289,47,16,05,037,,17,10,242,46,21,67,357,49*7D
$GLGSV,3,1,10,69,08,127,35,70,38,185,35,71,25,244,42,73,18,025,26*6E
$GNGLL,2237.47970,S,04928.05085,W,150337.00,A,D*78
$GNRMC,150338.00,A,2237.47971,S,04928.05085,W,0.015,,040423,,,D*6A
$GPGSV,4,2,16,09,14,289,47,16,05,037,,17,10,242,46,21,67,357,49*7D
$GLGSV,3,1,10,69,08,127,34,70,38,185,35,71,25,244,42,73,18,025,27*6E
$GNGLL,2237.47971,S,04928.05085,W,150338.00,A,D*76
$GNRMC,150339.00,A,2237.47972,S,04928.05085,W,0.022,,040423,,,D*6C
$GPGSV,4,1,16,01,75,243,53,03,39,206,48,04,44,271,48,08,10,348,21*73
$GLGSV,3,1,10,69,08,127,33,70,38,185,35,71,25,244,42,73,18,025,27*69
$GNGSA,A,3,84,70,69,71,79,86,80,73,,,,,1.18,0.60,1.01*1C
$GNGLL,2237.47973,S,04928.05086,W,150340.00,A,D*78
$GNRMC,150341.00,A,2237.47974,S,04928.05086,W,0.004,,040423,,,D*62
$GPGSV,4,1,16,01,75,243,53,03,39,206,48,04,44,271,47,08,10,348,21*7C
$GLGSV,3,1,10,69,08,127,32,70,38,185,35,71,25,244,41,73,18,025,28*64
$GNGLL,2237.47974,S,04928.05086,W,150341.00,A,D*7E
$GNRMC,150342.00,A,2237.47974,S,04928.05086,W,0.036,,040423,,,D*60
$GPGSV,4,1,16,01,75,243,53,03,39,206,48,04,44,271,47,08,10,348,21*7C
$GLGSV,3,1,10,69,08,127,32,70,38,185,35,71,25,244,41,73,18,025,28*64
$GNGLL,2237.47974,S,04928.05086,W,150342.00,A,D*7D
$GNRMC,150343.00,A,2237.47975,S,04928.05087,W,0.012,,040423,,,D*67
$GPGSV,4,1,16,01,75,243,53,03,39,206,48,04,44,271,47,08,10,348,21*7C
$GLGSV,3,1,10,69,08,127,33,70,38,185,35,71,25,244,40,73,18,025,28*64
$GNGLL,2237.47975,S,04928.05087,W,150343.00,A,D*7C
$GNRMC,150344.00,A,2237.48019,S,04928.05069,W,2.440,159.32,040423,,,D*7F
$GPGSV,4,2,16,09,14,289,47,16,05,037,,17,10,242,45,21,67,357,49*7E
$GLGSV,3,1,10,69,08,127,37,70,38,185,36,71,25,244,43,73,18,025,28*60
$GNGLL,2237.48019,S,04928.05069,W,150344.00,A,D*77
$GNRMC,150345.00,A,2237.48088,S,04928.05047,W,2.668,163.52,040423,,,D*7D
$GPGSV,4,2,16,09,14,289,46,16,05,037,,17,10,242,46,21,67,357,49*7C
$GLGSV,3,1,10,69,08,127,37,70,38,185,36,71,25,244,43,73,18,025,28*60
$GNGLL,2237.48088,S,04928.05047,W,150345.00,A,D*72
$GNRMC,150346.00,A,2237.48164,S,04928.05021,W,3.007,161.96,040423,,,D*79
$GPGSV,4,2,16,09,14,289,46,16,05,037,,17,10,242,45,21,67,357,49*7F
$GLGSV,3,1,10,69,08,127,37,70,38,185,36,71,25,244,42,73,18,025,27*6E
$GNGLL,2237.48164,S,04928.05021,W,150346.00,A,D*72
$GNRMC,150347.00,A,2237.48260,S,04928.04979,W,4.015,158.39,040423,,,D*71
$GPGSV,4,2,16,09,14,289,47,16,05,037,,17,10,242,45,21,67,357,49*7E
$GLGSV,3,1,10,69,08,127,37,70,38,185,35,71,25,244,42,73,18,025,26*6C
$GNGGA,150348.00,2237.48360,S,04928.04947,W,2,12,0.62,577.2,M,-5.2,M,,0000*5B
$GPGSV,4,4,16,36,00,087,,46,01,274,37,48,05,276,42,49,25,075,*76
$GLGSV,3,1,10,69,08,127,34,70,38,185,37,71,25,244,43,73,18,025,25*6F
$GNGLL,2237.48360,S,04928.04947,W,150348.00,A,D*72
$GNRMC,150349.00,A,2237.48453,S,04928.04959,W,3.351,188.42,040423,,,D*7E
$GNGLL,2237.48453,S,04928.04959,W,150349.00,A,D*7B
$GNRMC,150350.00,A,2237.48524,S,04928.05011,W,3.123,209.21,040423,,,D*7B
$GPGSV,4,2,16,09,14,289,45,16,05,037,,17,10,242,44,21,67,357,51*74
$GLGSV,3,1,10,69,08,127,38,70,38,185,32,71,25,244,43,73,18,025,25*66
$GNGLL,2237.48524,S,04928.05011,W,150350.00,A,D*76
$GNRMC,150351.00,A,2237.48567,S,04928.05093,W,3.335,233.44,040423,,,D*78
$GPGSV,4,2,16,09,14,289,42,16,05,037,,17,10,242,48,21,67,357,50*7E
$GLGSV,3,1,10,69,08,127,38,70,38,185,34,71,25,244,44,73,18,025,26*64
$GNGLL,2237.48567,S,04928.05093,W,150351.00,A,D*7A
$GNRMC,150352.00,A,2237.48579,S,04928.05185,W,3.099,253.10,040423,,,D*70
$GPGSV,4,2,16,09,14,289,45,16,05,037,,17,10,242,47,21,67,357,50*76
$GLGSV,3,1,10,69,08,127,35,70,38,185,33,71,25,244,42,73,18,025,25*6B
$GNGLL,2237.48579,S,04928.05185,W,150352.00,A,D*70
$GNRMC,150353.00,A,2237.48562,S,04928.05270,W,2.897,274.49,040423,,,D*7C
$GPGSV,4,2,16,09,14,289,50,16,05,037,,17,10,242,45,21,67,357,50*70
$GLGSV,3,1,10,69,08,127,39,70,38,185,37,71,25,244,43,73,18,025,24*63
$GNGLL,2237.48562,S,04928.05270,W,150353.00,A,D*72
$GNRMC,150354.00,A,2237.48518,S,04928.05331,W,2.593,299.91,040423,,,D*7D
$GPGSV,4,4,16,36,00,087,,46,01,274,41,48,05,276,43,49,25,075,45*77
$GLGSV,3,2,10,79,11,135,41,80,30,084,43,84,30,357,33,85,58,268,*6B
$GNGLL,2237.48518,S,04928.05331,W,150354.00,A,D*7C
$GNRMC,150355.00,A,2237.48464,S,04928.05383,W,2.572,310.45,040423,,,D*79
$GLGSV,3,1,10,69,08,127,36,70,38,185,34,71,25,244,35,73,18,025,26*6C
$GNGLL,2237.48464,S,04928.05383,W,150355.00,A,D*7E
$GNRMC,150356.00,A,2237.48412,S,04928.05430,W,2.433,315.95,040423,,,D*78
$GPGSV,4,2,16,09,14,289,47,16,05,037,,17,10,242,45,21,67,357,52*74
$GLGSV,3,1,10,69,08,127,35,70,38,185,33,71,25,244,30,73,18,025,28*63
$GNGLL,2237.48412,S,04928.05430,W,150356.00,A,D*73
$GNRMC,150357.00,A,2237.48357,S,04928.05472,W,2.426,320.71,040423,,,D*71
$GPGSV,4,1,16,01,75,243,52,03,39,206,49,04,44,271,51,08,10,348,32*79
$GLGSV,3,1,10,69,08,127,38,70,38,185,34,71,25,244,36,73,18,025,28*6F
$GNGLL,2237.48357,S,04928.05472,W,150357.00,A,D*72
$GNRMC,150358.00,A,2237.48305,S,04928.05521,W,2.535,317.13,040423,,,D*7D
$GPGSV,4,1,16,01,75,243,52,03,39,206,49,04,44,271,51,08,10,348,26*7C
$GLGSV,3,1,10,69,08,127,40,70,38,185,36,71,25,244,41,73,18,025,28*62
$GNGLL,2237.48305,S,04928.05521,W,150358.00,A,D*7D
$GNRMC,150359.00,A,2237.48257,S,04928.05569,W,2.317,317.44,040423,,,D*72
$GPGSV,4,4,16,36,00,087,,46,01,274,39,48,05,276,42,49,25,075,43*7F
$GLGSV,3,1,10,69,08,127,40,70,38,185,36,71,25,244,41,73,18,025,28*62
$GNGLL,2237.48257,S,04928.05569,W,150359.00,A,D*76
$GNRMC,150400.00,A,2237.48227,S,04928.05593,W,0.946,318.41,040423,,,D*7D
$GPGSV,4,1,16,01,75,243,52,03,39,206,49,04,44,271,50,08,10,348,23*78
$GLGSV,3,1,10,69,08,127,38,70,38,185,36,71,25,244,38,73,18,025,28*63
$GNGLL,2237.48227,S,04928.05593,W,150400.00,A,D*7F
$GNRMC,150401.00,A,2237.48217,S,04928.05599,W,0.190,,040423,,,D*67
$GPGSV,4,1,16,01,75,243,52,03,39,206,49,04,44,271,50,08,10,348,21*7A
$GLGSV,3,1,10,69,08,127,40,70,38,185,36,71,25,244,38,73,18,025,29*6D
$GNGLL,2237.48217,S,04928.05599,W,150401.00,A,D*77
$GNRMC,150402.00,A,2237.48214,S,04928.05600,W,0.075,,040423,,,D*6E
$GPGSV,4,1,16,01,75,243,51,03,39,206,49,04,44,271,51,08,10,348,23*7A
$GLGSV,3,1,10,69,08,127,40,70,38,185,36,71,25,244,41,73,18,025,29*63
$GNGLL,2237.48214,S,04928.05600,W,150402.00,A,D*74
$GNGSA,A,3,84,70,69,71,79,86,80,73,,,,,1.12,0.56,0.96*1C
$GPGSV,4,1,16,01,75,243,52,03,39,206,49,04,44,271,50,08,10,348,24*7F
$GLGSV,3,1,10,69,08,127,36,70,38,185,36,71,25,244,41,73,18,025,28*63
$GNGLL,2237.48211,S,04928.05601,W,150403.00,A,D*71
$GNRMC,150404.00,A,2237.48201,S,04928.05612,W,0.717,315.68,040423,,,D*7B
$GPGSV,4,4,16,36,00,087,,46,01,274,40,48,05,276,45,49,25,075,38*7A
$GLGSV,3,1,10,69,08,127,41,70,38,185,36,71,25,244,39,73,18,025,38*6D
$GNGLL,2237.48201,S,04928.05612,W,150404.00,A,D*75
$GNGSA,A,3,84,70,69,71,79,86,80,73,,,,,1.18,0.60,1.01*1C
$GPGSV,4,1,16,01,75,243,51,03,39,206,50,04,44,271,51,08,10,348,22*73
$GLGSV,3,1,10,69,08,127,39,70,38,185,36,71,25,244,39,73,18,025,37*6D
$GNGLL,2237.48188,S,04928.05625,W,150405.00,A,D*72
$GNRMC,150406.00,A,2237.48178,S,04928.05632,W,0.369,317.47,040423,,,D*74
$GPGSV,4,1,16,01,75,243,51,03,39,206,49,04,44,271,51,08,10,348,21*78
$GLGSV,3,1,10,69,08,127,39,70,38,185,36,71,25,244,35,73,18,025,34*62
$GNGLL,2237.48178,S,04928.05632,W,150406.00,A,D*78
$GNRMC,150407.00,A,2237.48174,S,04928.05633,W,0.077,,040423,,,D*6C
$GPGSV,4,2,16,09,14,289,50,16,05,037,,17,10,242,41,21,67,357,51*75
$GLGSV,3,1,10,69,08,127,42,70,38,185,36,71,25,244,36,73,18,025,33*6A
$GNGLL,2237.48174,S,04928.05633,W,150407.00,A,D*74
$GNRMC,150408.00,A,2237.48174,S,04928.05631,W,0.103,,040423,,,D*63
$GPGSV,4,2,16,09,14,289,50,16,05,037,,17,10,242,42,21,67,357,51*76
$GLGSV,3,1,10,69,08,127,42,70,38,185,36,71,25,244,37,73,18,025,33*6B
$GNGLL,2237.48174,S,04928.05631,W,150408.00,A,D*79
$GNRMC,150409.00,A,2237.48172,S,04928.05629,W,0.087,,040423,,,D*60
$GPGSV,4,2,16,09,14,289,50,16,05,037,,17,10,242,42,21,67,357,51*76
$GLGSV,3,1,10,69,08,127,42,70,38,185,36,71,25,244,37,73,18,025,33*6B
$GNGLL,2237.48172,S,04928.05629,W,150409.00,A,D*77
$GNRMC,150410.00,A,2237.48171,S,04928.05628,W,0.043,,040423,,,D*62
$GPGSV,4,2,16,09,14,289,50,16,05,037,,17,10,242,43,21,67,357,51*77
$GLGSV,3,1,10,69,08,127,43,70,38,185,36,71,25,244,37,73,18,025,34*6D
$GNGLL,2237.48171,S,04928.05628,W,150410.00,A,D*7D
$GNRMC,150411.00,A,2237.48171,S,04928.05626,W,0.029,,040423,,,D*61
$GPGSV,4,2,16,09,14,289,50,16,05,037,,17,10,242,43,21,67,357,51*77
$GLGSV,3,1,10,69,08,127,44,70,38,185,36,71,25,244,37,73,18,025,34*6A
$GNGLL,2237.48171,S,04928.05626,W,150411.00,A,D*72
$GNRMC,150412.00,A,2237.48170,S,04928.05625,W,0.035,,040423,,,D*6D
$GPGSV,4,2,16,09,14,289,49,16,05,037,,17,10,242,43,21,67,357,51*7F
$GLGSV,3,1,10,69,07,127,44,70,38,185,36,71,25,244,40,73,18,025,34*65
$GNGLL,2237.48170,S,04928.05625,W,150412.00,A,D*73
$GNRMC,150413.00,A,2237.48172,S,04928.05624,W,0.046,,040423,,,D*6B
$GPGSV,4,2,16,09,14,289,49,16,05,037,,17,10,242,43,21,67,357,51*7F
$GLGSV,3,1,10,69,07,127,43,70,38,185,37,71,25,244,40,73,18,025,35*62
$GNGLL,2237.48172,S,04928.05624,W,150413.00,A,D*71
$GNRMC,150414.00,A,2237.48173,S,04928.05623,W,0.004,,040423,,,D*6C
$GPGSV,4,2,16,09,14,289,49,16,05,037,,17,10,242,43,21,67,357,51*7F
$GLGSV,3,1,10,69,07,127,43,70,38,185,36,71,25,244,41,73,18,025,34*63
$GNGLL,2237.48173,S,04928.05623,W,150414.00,A,D*70
$GNRMC,150415.00,A,2237.48173,S,04928.05623,W,0.023,,040423,,,D*68
$GPGSV,4,2,16,09,14,289,49,16,05,037,,17,10,242,43,21,67,357,50*7E
$GLGSV,3,1,10,69,07,127,43,70,38,185,37,71,25,244,42,73,18,025,34*61
$GNGLL,2237.48173,S,04928.05623,W,150415.00,A,D*71
$GNRMC,150416.00,A,2237.48174,S,04928.05622,W,0.026,,040423,,,D*68
$GNGLL,2237.48174,S,04928.05622,W,150416.00,A,D*74
$GNRMC,150417.00,A,2237.48174,S,04928.05622,W,0.003,,040423,,,D*6E
$GPGSV,4,1,16,01,75,243,51,03,39,206,49,04,44,271,50,08,10,348,10*7B
$GLGSV,3,1,10,69,07,127,43,70,38,185,36,71,25,244,42,73,18,026,32*65
$GNGLL,2237.48174,S,04928.05622,W,150417.00,A,D*75
$GNRMC,150418.00,A,2237.48174,S,04928.05621,W,0.021,,040423,,,D*62
$GPGSV,4,2,16,09,14,289,49,16,05,037,,17,10,242,42,21,67,357,51*7E
$GLGSV,3,1,10,69,07,127,43,70,38,185,36,71,25,244,43,73,18,026,32*64
$GNGLL,2237.48174,S,04928.05621,W,150418.00,A,D*79
$GNRMC,150419.00,A,2237.48175,S,04928.05620,W,0.013,,040423,,,D*62
$GPGSV,4,1,16,01,75,243,51,03,39,206,49,04,44,271,50,08,10,348,15*7E
$GNGLL,2237.48175,S,04928.05620,W,150419.00,A,D*78
$GNGSA,A,3,84,70,69,71,79,86,80,73,,,,,1.18,0.60,1.01*1C
$GPGSV,4,1,16,01,75,243,51,03,39,206,49,04,44,271,50,08,10,348,09*73
$GLGSV,3,1,10,69,07,127,43,70,38,185,37,71,25,244,43,73,18,026,30*67
$GNGLL,2237.48175,S,04928.05619,W,150420.00,A,D*78
$GNRMC,150421.00,A,2237.48175,S,04928.05618,W,0.014,,040423,,,D*65
$GPGSV,4,2,16,09,14,289,50,16,05,037,,17,10,242,41,21,67,357,51*75
$GLGSV,3,1,10,69,07,127,43,70,38,185,36,71,25,244,43,73,18,026,29*6E
$GNGLL,2237.48175,S,04928.05618,W,150421.00,A,D*78
$GNRMC,150422.00,A,2237.48175,S,04928.05617,W,0.004,,040423,,,D*68
$GPGSV,4,1,16,01,75,243,51,03,39,206,49,04,44,271,50,08,10,348,12*79
$GLGSV,3,1,10,69,07,127,42,70,38,185,36,71,25,244,43,73,18,026,29*6F
$GNGLL,2237.48175,S,04928.05617,W,150422.00,A,D*74
$GNRMC,150423.00,A,2237.48175,S,04928.05615,W,0.005,,040423,,,D*6A
$GPGSV,4,1,16,01,75,243,52,03,39,206,50,04,44,271,51,08,10,348,12*73
$GLGSV,3,1,10,69,07,127,42,70,38,185,36,71,25,244,42,73,18,026,30*66
$GNGLL,2237.48175,S,04928.05615,W,150423.00,A,D*77
$GNRMC,150424.00,A,2237.48175,S,04928.05614,W,0.013,,040423,,,D*6B
$GPGSV,4,2,16,09,14,289,50,16,05,037,,17,10,242,43,21,67,357,52*74
$GLGSV,3,1,10,69,07,127,43,70,38,185,35,71,25,244,43,73,18,026,30*65
$GNGLL,2237.48175,S,04928.05614,W,150424.00,A,D*71
$GNRMC,150425.00,A,2237.48175,S,04928.05614,W,0.003,,040423,,,D*6B
$GPGSV,4,1,16,01,75,243,52,03,39,206,50,04,44,271,51,08,10,348,16*77
$GLGSV,3,1,10,69,07,127,42,70,38,185,35,71,25,244,42,73,18,026,30*65
$GNGLL,2237.48175,S,04928.05614,W,150425.00,A,D*70
$GNRMC,150426.00,A,2237.48175,S,04928.05613,W,0.002,,040423,,,D*6E
$GPGSV,4,2,16,09,14,289,50,16,05,037,,17,10,242,44,21,67,357,52*73
$GLGSV,3,1,10,69,07,127,42,70,38,185,35,71,25,244,43,73,18,026,31*65
$GNGLL,2237.48175,S,04928.05613,W,150426.00,A,D*74
$GNRMC,150427.00,A,2237.48175,S,04928.05612,W,0.003,,040423,,,D*6F
$GPGSV,4,2,16,09,14,289,50,16,05,037,,17,10,242,44,21,67,357,52*73
$GLGSV,3,1,10,69,07,127,42,70,38,185,36,71,25,244,43,73,18,026,32*65
$GNGLL,2237.48175,S,04928.05612,W,150427.00,A,D*74
$GNRMC,150428.00,A,2237.48176,S,04928.05611,W,0.016,,040423,,,D*64
$GPGSV,4,3,16,22,,,43,26,12,069,32,28,25,135,45,31,42,122,51*4D
$GLGSV,3,1,10,69,07,127,41,70,38,185,36,71,25,244,42,73,18,026,32*67
$GNGLL,2237.48176,S,04928.05611,W,150428.00,A,D*7B
$GNRMC,150429.00,A,2237.48175,S,04928.05610,W,0.004,,040423,,,D*64
$GPGSV,4,2,16,09,14,289,49,16,05,037,,17,10,242,43,21,67,357,51*7F
$GLGSV,3,1,10,69,07,127,42,70,38,185,36,71,25,244,42,73,18,026,31*67
$GNGLL,2237.48175,S,04928.05610,W,150429.00,A,D*78
$GNRMC,150430.00,A,2237.48176,S,04928.05610,W,0.007,,040423,,,D*6C
$GPGSV,4,1,16,01,75,243,51,03,39,206,49,04,44,271,51,08,10,348,*7B
$GLGSV,3,1,10,69,07,127,42,70,38,185,35,71,25,244,41,73,18,026,31*67
$GNGLL,2237.48176,S,04928.05610,W,150430.00,A,D*73
$GNRMC,150431.00,A,2237.48176,S,04928.05610,W,0.010,,040423,,,D*6B
$GPGSV,4,1,16,01,75,243,51,03,39,206,49,04,44,271,51,08,10,348,*7B
$GLGSV,3,1,10,69,07,127,42,70,38,185,36,71,25,244,40,73,18,026,31*65
$GNGLL,2237.48176,S,04928.05610,W,150431.00,A,D*72
$GNRMC,150432.00,A,2237.48176,S,04928.05610,W,0.010,,040423,,,D*68
$GPGSV,4,2,16,09,14,289,48,16,05,037,,17,10,242,43,21,67,357,51*7E
$GLGSV,3,1,10,69,07,127,42,70,38,185,36,71,25,244,41,73,18,026,31*64
$GNGLL,2237.48176,S,04928.05610,W,150432.00,A,D*71
$GNRMC,150433.00,A,2237.48177,S,04928.05610,W,0.013,,040423,,,D*6B
$GPGSV,4,1,16,01,75,245,51,03,39,206,49,04,44,271,51,08,10,348,*7D
$GLGSV,3,1,10,69,07,127,43,70,38,185,36,71,25,244,40,73,18,026,30*65
$GNGLL,2237.48177,S,04928.05610,W,150433.00,A,D*71
$GNRMC,150434.00,A,2237.48177,S,04928.05610,W,0.012,,040423,,,D*6D
$GPGSV,4,1,16,01,75,245,51,03,39,206,49,04,44,271,51,08,10,348,*7D
$GLGSV,3,1,10,69,07,127,43,70,38,185,36,71,25,244,40,73,18,026,31*64
$GNGLL,2237.48177,S,04928.05610,W,150434.00,A,D*76
$GNRMC,150435.00,A,2237.48177,S,04928.05610,W,0.009,,040423,,,D*66
$GPGSV,4,2,16,09,14,289,48,16,05,037,,17,10,242,44,21,67,357,51*79
$GLGSV,3,1,10,69,07,127,43,70,38,185,36,71,25,244,39,73,18,026,31*6A
$GNGLL,2237.48177,S,04928.05610,W,150435.00,A,D*77
$GNRMC,150436.00,A,2237.48178,S,04928.05611,W,0.010,,040423,,,D*63
$GPGSV,4,1,16,01,75,245,52,03,40,206,49,04,44,270,50,08,10,348,*70
$GLGSV,3,1,10,69,07,127,43,70,38,185,36,71,25,244,39,73,18,026,32*69
$GNGLL,2237.48178,S,04928.05611,W,150436.00,A,D*7A
$GNRMC,150437.00,A,2237.48179,S,04928.05611,W,0.004,,040423,,,D*66
$GPGSV,4,4,16,36,00,087,,46,01,274,41,48,05,276,43,49,25,075,*76
$GLGSV,3,1,10,69,07,127,43,70,38,185,36,71,25,244,40,73,18,026,32*67
$GNGLL,2237.48179,S,04928.05611,W,150437.00,A,D*7A
$GNRMC,150438.00,A,2237.48180,S,04928.05611,W,0.007,,040423,,,D*6C
$GPGSV,4,2,16,09,14,289,48,16,05,037,,17,10,242,44,21,67,357,51*79
$GLGSV,3,1,10,69,07,127,43,70,38,185,36,71,25,244,40,73,18,026,33*66
$GNGLL,2237.48180,S,04928.05611,W,150438.00,A,D*73
$GNRMC,150439.00,A,2237.48181,S,04928.05612,W,0.006,,040423,,,D*6E
$GPGSV,4,1,16,01,75,245,52,03,40,206,49,04,44,270,50,08,10,348,*70
$GLGSV,3,1,10,69,07,127,43,70,38,185,35,71,25,244,40,73,18,026,34*62
$GNGLL,2237.48181,S,04928.05612,W,150439.00,A,D*70
$GNRMC,150440.00,A,2237.48181,S,04928.05612,W,0.009,,040423,,,D*6F
$GPGSV,4,2,16,09,14,289,49,16,05,037,,17,10,242,44,21,67,357,51*78
$GLGSV,3,1,10,69,07,127,43,70,38,185,36,71,25,244,40,73,18,026,34*61
$GNGLL,2237.48181,S,04928.05612,W,150440.00,A,D*7E
$GNVTG,,T,,M,0.009,N,0.017,K,D*37
$GPGSV,4,2,16,09,15,288,49,16,05,037,,17,10,242,44,21,67,357,51*78
$GLGSV,3,1,10,69,07,127,43,70,38,185,36,71,25,244,41,73,18,026,35*61
$GNGLL,2237.48182,S,04928.05613,W,150441.00,A,D*7D
$GNRMC,150442.00,A,2237.48183,S,04928.05613,W,0.031,,040423,,,D*65
$GPGSV,4,1,16,01,75,245,51,03,40,206,49,04,44,270,50,08,10,348,*73
$GLGSV,3,1,10,69,07,127,43,70,38,185,36,71,25,244,41,73,18,026,34*60
$GNGLL,2237.48183,S,04928.05613,W,150442.00,A,D*7F
$GNRMC,150443.00,A,2237.48184,S,04928.05614,W,0.006,,040423,,,D*60
$GPGSV,4,2,16,09,15,288,50,16,05,037,,17,10,242,43,21,67,357,51*77
$GLGSV,3,1,10,69,07,127,43,70,38,185,36,71,25,244,41,73,18,026,33*67
$GNGLL,2237.48184,S,04928.05614,W,150443.00,A,D*7E
$GNRMC,150444.00,A,2237.48184,S,04928.05614,W,0.010,,040423,,,D*60
$GPGSV,4,1,16,01,75,245,51,03,40,206,49,04,44,270,50,08,10,348,*73
$GLGSV,3,1,10,69,07,127,43,70,38,185,36,71,25,244,42,73,18,026,33*64
$GNGLL,2237.48184,S,04928.05614,W,150444.00,A,D*79
$GNRMC,150445.00,A,2237.48185,S,04928.05615,W,0.020,,040423,,,D*62
$GPGSV,4,1,16,01,75,245,51,03,40,206,49,04,44,270,50,08,10,348,*73
$GLGSV,3,1,10,69,07,127,42,70,38,185,36,71,25,244,42,73,18,026,33*65
$GNGLL,2237.48185,S,04928.05615,W,150445.00,A,D*78
$GNRMC,150446.00,A,2237.48185,S,04928.05616,W,0.008,,040423,,,D*68
$GPGSV,4,2,16,09,15,288,50,16,05,037,,17,10,242,43,21,67,357,51*77
$GLGSV,3,1,10,69,07,127,42,70,38,185,36,71,25,244,42,73,18,026,32*64
$GNGLL,2237.48185,S,04928.05616,W,150446.00,A,D*78
$GNRMC,150447.00,A,2237.48184,S,04928.05616,W,0.010,,040423,,,D*61
$GPGSV,4,2,16,09,15,288,50,16,05,037,,17,10,242,43,21,67,357,50*76
$GLGSV,3,1,10,69,07,127,42,70,38,185,36,71,25,244,42,73,18,026,32*64
$GNGLL,2237.48184,S,04928.05616,W,150447.00,A,D*78
$GNRMC,150448.00,A,2237.48184,S,04928.05616,W,0.003,,040423,,,D*6C
$GPGSV,4,2,16,09,15,288,50,16,06,037,,17,10,242,43,21,67,357,50*75
$GLGSV,3,1,10,69,07,127,42,70,38,185,36,71,25,244,42,73,18,026,32*64
$GNGLL,2237.48184,S,04928.05616,W,150448.00,A,D*77
$GNRMC,150449.00,A,2237.48183,S,04928.05616,W,0.003,,040423,,,D*6A
$GPGSV,4,2,16,09,15,288,50,16,06,037,,17,10,242,43,21,67,357,50*75
$GLGSV,3,1,10,69,07,127,42,70,38,185,36,71,25,244,42,73,18,026,32*64
$GNGLL,2237.48183,S,04928.05616,W,150449.00,A,D*71
$GNRMC,150450.00,A,2237.48182,S,04928.05616,W,0.018,,040423,,,D*69
$GPGSV,4,1,16,01,75,245,51,03,40,206,49,04,44,270,50,08,10,348,*73
$GLGSV,3,1,10,69,07,127,41,70,38,185,36,71,25,244,43,73,18,026,32*66
$GNGLL,2237.48182,S,04928.05616,W,150450.00,A,D*78
$GNRMC,150451.00,A,2237.48181,S,04928.05616,W,0.005,,040423,,,D*67
$GPGSV,4,2,16,09,15,288,50,16,06,037,,17,10,242,43,21,67,357,50*75
$GLGSV,3,1,10,69,07,127,41,70,38,185,37,71,25,244,43,73,18,026,32*67
$GNGLL,2237.48181,S,04928.05616,W,150451.00,A,D*7A
$GNRMC,150452.00,A,2237.48179,S,04928.05615,W,0.008,,040423,,,D*6D
$GPGSV,4,1,16,01,75,245,51,03,40,206,49,04,44,270,50,08,10,348,*73
$GLGSV,3,1,10,69,07,127,41,70,38,185,37,71,25,244,43,73,18,026,32*67
$GNGLL,2237.48179,S,04928.05615,W,150452.00,A,D*7D
$GNRMC,150453.00,A,2237.48178,S,04928.05615,W,0.013,,040423,,,D*67
$GPGSV,4,1,16,01,75,245,51,03,40,206,49,04,44,270,50,08,10,348,*73
$GLGSV,3,1,10,69,07,127,41,70,38,185,37,71,25,244,42,73,18,026,31*65
$GNGLL,2237.48178,S,04928.05615,W,150453.00,A,D*7D
$GNRMC,150454.00,A,2237.48178,S,04928.05614,W,0.010,,040423,,,D*62
$GPGSV,4,2,16,09,15,288,49,16,06,037,,17,10,242,43,21,66,357,51*7D
$GLGSV,3,1,10,69,07,127,41,70,38,185,37,71,25,244,42,73,18,026,31*65
$GNGLL,2237.48178,S,04928.05614,W,150454.00,A,D*7B
$GNRMC,150455.00,A,2237.48177,S,04928.05613,W,0.006,,040423,,,D*6C
$GPGSV,4,2,16,09,15,288,49,16,06,037,,17,10,242,43,21,66,357,51*7D
$GLGSV,3,1,10,69,07,127,40,70,38,185,37,71,25,244,42,73,18,026,31*64
$GNGLL,2237.48177,S,04928.05613,W,150455.00,A,D*72
$GNRMC,150456.00,A,2237.48177,S,04928.05613,W,0.004,,040423,,,D*6D
$GPGSV,4,2,16,09,15,288,49,16,06,037,,17,10,242,43,21,66,357,51*7D
$GLGSV,3,1,10,69,07,127,40,70,38,185,37,71,25,244,42,73,18,026,31*64
$GNGLL,2237.48177,S,04928.05613,W,150456.00,A,D*71
$GNRMC,150457.00,A,2237.48177,S,04928.05612,W,0.013,,040423,,,D*6B
$GPGSV,4,1,16,01,75,245,51,03,40,206,49,04,44,270,50,08,10,348,*73
$GLGSV,3,1,10,69,07,127,40,70,38,185,37,71,25,244,42,73,18,026,31*64
$GNGLL,2237.48177,S,04928.05612,W,150457.00,A,D*71
$GNRMC,150458.00,A,2237.48176,S,04928.05612,W,0.013,,040423,,,D*65
$GPGSV,4,1,16,01,75,245,52,03,40,206,49,04,44,270,50,08,10,348,*70
$GLGSV,3,1,10,69,07,127,40,70,38,185,37,71,25,244,42,73,18,026,31*64
$GNGLL,2237.48176,S,04928.05612,W,150458.00,A,D*7F
$GNRMC,150459.00,A,2237.48176,S,04928.05611,W,0.007,,040423,,,D*62
$GPGSV,4,1,16,01,75,245,52,03,40,206,49,04,44,270,50,08,10,348,*70
$GLGSV,3,1,10,69,07,127,40,70,38,185,36,71,25,244,42,73,18,026,31*65
$GNGLL,2237.48176,S,04928.05611,W,150459.00,A,D*7D
$GNRMC,150500.00,A,2237.48175,S,04928.05610,W,0.020,,040423,,,D*68
$GPGSV,4,1,16,01,75,245,52,03,40,206,49,04,44,270,51,08,10,348,*71
$GLGSV,3,1,10,69,07,127,39,70,38,185,36,71,25,244,42,73,18,026,31*6B
$GNGLL,2237.48175,S,04928.05610,W,150500.00,A,D*72
$GNRMC,150501.00,A,2237.48175,S,04928.05609,W,0.009,,040423,,,D*6A
$GPGSV,4,1,16,01,75,245,52,03,40,206,49,04,44,270,51,08,10,348,*71
$GLGSV,3,1,10,69,07,127,40,70,38,185,36,71,25,244,42,73,18,026,31*65
$GNGLL,2237.48175,S,04928.05609,W,150501.00,A,D*7B
$GNRMC,150502.00,A,2237.48174,S,04928.05608,W,0.007,,040423,,,D*67
$GPGSV,4,1,16,01,75,245,52,03,40,206,50,04,44,270,51,08,10,348,*79
$GLGSV,3,1,10,69,07,127,39,70,38,185,36,71,25,244,42,73,18,026,31*6B
$GNGLL,2237.48174,S,04928.05608,W,150502.00,A,D*78
$GNRMC,150503.00,A,2237.48173,S,04928.05607,W,0.010,,040423,,,D*68
$GPGSV,4,1,16,01,75,245,52,03,40,206,49,04,44,270,50,08,10,348,*70
$GLGSV,3,1,10,69,07,127,39,70,38,185,36,71,25,244,42,73,18,026,31*6B
$GNGLL,2237.48173,S,04928.05607,W,150503.00,A,D*71
$GNRMC,150504.00,A,2237.48172,S,04928.05606,W,0.005,,040423,,,D*6B
$GPGSV,4,1,16,01,75,245,52,03,40,206,49,04,44,270,50,08,10,348,*70
$GLGSV,3,1,10,69,07,127,40,70,38,185,36,71,25,244,41,73,18,026,32*65
$GNGLL,2237.48172,S,04928.05606,W,150504.00,A,D*76
$GNRMC,150505.00,A,2237.48171,S,04928.05605,W,0.022,,040423,,,D*6F
$GPGSV,4,2,16,09,15,288,48,16,06,037,,17,10,242,44,21,66,357,51*7B
$GLGSV,3,1,10,69,07,127,40,70,38,185,36,71,25,244,42,73,18,026,33*67
$GNGLL,2237.48171,S,04928.05605,W,150505.00,A,D*77
$GNRMC,150506.00,A,2237.48170,S,04928.05604,W,0.009,,040423,,,D*65
$GPGSV,4,2,16,09,15,288,48,16,06,037,,17,10,242,43,21,66,357,51*7C
$GLGSV,3,1,10,69,07,127,39,70,38,185,36,71,25,244,42,73,18,026,34*6E
$GNGLL,2237.48170,S,04928.05604,W,150506.00,A,D*74
$GNRMC,150507.00,A,2237.48170,S,04928.05604,W,0.007,,040423,,,D*6A
$GPGSV,4,2,16,09,15,288,48,16,06,037,,17,10,242,43,21,66,357,51*7C
$GLGSV,3,1,10,69,07,127,39,70,38,185,36,71,25,244,41,73,18,026,34*6D
$GNGLL,2237.48170,S,04928.05604,W,150507.00,A,D*75
$GNRMC,150508.00,A,2237.48171,S,04928.05603,W,0.008,,040423,,,D*6C
$GPGSV,4,2,16,09,15,288,48,16,06,037,,17,10,242,43,21,66,357,51*7C
$GLGSV,3,1,10,69,07,127,38,70,38,185,36,71,25,244,41,73,18,026,34*6C
$GNGLL,2237.48171,S,04928.05603,W,150508.00,A,D*7C
$GNRMC,150509.00,A,2237.48170,S,04928.05602,W,0.002,,040423,,,D*67
$GPGSV,4,2,16,09,15,288,48,16,06,037,,17,10,242,42,21,66,357,51*7D
$GLGSV,3,1,10,69,07,127,38,70,38,185,36,71,25,244,42,73,18,026,34*6F
$GNGLL,2237.48170,S,04928.05602,W,150509.00,A,D*7D
$GNRMC,150510.00,A,2237.48170,S,04928.05601,W,0.002,,040423,,,D*6C
$GPGSV,4,2,16,09,15,288,48,16,06,037,,17,10,242,43,21,66,357,51*7C
$GLGSV,3,1,10,69,07,127,37,70,38,185,36,71,25,244,42,73,18,026,34*60
$GNGLL,2237.48170,S,04928.05601,W,150510.00,A,D*76
$GNRMC,150511.00,A,2237.48169,S,04928.05600,W,0.015,,040423,,,D*62
$GPGSV,4,2,16,09,15,288,48,16,06,037,,17,10,242,43,21,66,357,51*7C
$GLGSV,3,1,10,69,07,127,38,70,38,185,36,71,25,244,43,73,18,026,33*69
$GNGLL,2237.48169,S,04928.05600,W,150511.00,A,D*7E
$GNRMC,150512.00,A,2237.48168,S,04928.05599,W,0.007,,040423,,,D*60
$GPGSV,4,2,16,09,15,288,48,16,06,037,,17,10,242,43,21,66,357,51*7C
$GLGSV,3,1,10,69,07,127,38,70,38,185,37,71,25,244,42,73,18,026,32*68
